{"type": "FeatureCollection", "features": [{"type": "Feature", "geometry": {"type": "Point", "coordinates": [83.991402, 28.209538]}, "properties": {"place": "city", "name": "पोखरा", "population": "500000"}}, {"type": "Feature", "geometry": {"type": "Point", "coordinates": [85.3205817, 27.708317]}, "properties": {"place": "city", "name": "काठमाडौं", "population": "975000"}}, {"type": "Feature", "geometry": {"type": "Point", "coordinates": [83.6904956, 27.4280015]}, "properties": {"place": "village", "name": "Thuthibari", "population": null}}, {"type": "Feature", "geometry": {"type": "Point", "coordinates": [82.7908826, 27.4971325]}, "properties": {"place": "town", "name": "Barhni", "population": null}}, {"type": "Feature", "geometry": {"type": "Point", "coordinates": [80.9332614, 28.435031]}, "properties": {"place": "village", "name": "Banbirpur", "population": null}}, {"type": "Feature", "geometry": {"type": "Point", "coordinates": [84.0164736, 27.614637]}, "properties": {"place": "village", "name": "Chormara", "population": null}}, {"type": "Feature", "geometry": {"type": "Point", "coordinates": [85.1994751, 28.1899723]}, "properties": {"place": "hamlet", "name": "Somdang", "population": null}}, {"type": "Feature", "geometry": {"type": "Point", "coordinates": [83.863535, 28.2817034]}, "properties": {"place": "village", "name": "Naudanda", "population": null}}, {"type": "Feature", "geometry": {"type": "Point", "coordinates": [84.9277833, 28.0204744]}, "properties": {"place": "hamlet", "name": "बगुवा बेसी", "population": null}}, {"type": "Feature", "geometry": {"type": "Point", "coordinates": [84.9667138, 28.0311934]}, "properties": {"place": "village", "name": "Kintang Phedi", "population": null}}, {"type": "Feature", "geometry": {"type": "Point", "coordinates": [84.8123842, 28.0462291]}, "properties": {"place": "village", "name": "Ārughāt Bāzār", "population": null}}, {"type": "Feature", "geometry": {"type": "Point", "coordinates": [84.538429, 27.90423]}, "properties": {"place": "town", "name": "आबूखैरेनी बजार", "population": null}}, {"type": "Feature", "geometry": {"type": "Point", "coordinates": [84.4096781, 27.9631254]}, "properties": {"place": "town", "name": "डुम्रे", "population": null}}, {"type": "Feature", "geometry": {"type": "Point", "coordinates": [85.1859528, 27.9731085]}, "properties": {"place": "hamlet", "name": "बेत्रावती", "population": null}}, {"type": "Feature", "geometry": {"type": "Point", "coordinates": [84.8359959, 28.0440088]}, "properties": {"place": "hamlet", "name": "बिर्ता", "population": null}}, {"type": "Feature", "geometry": {"type": "Point", "coordinates": [84.8223526, 28.042819]}, "properties": {"place": "hamlet", "name": "शिङ्गाटार", "population": null}}, {"type": "Feature", "geometry": {"type": "Point", "coordinates": [84.8647382, 28.025486]}, "properties": {"place": "hamlet", "name": "सल्यानकोट", "population": null}}, {"type": "Feature", "geometry": {"type": "Point", "coordinates": [84.916593, 28.0166123]}, "properties": {"place": "hamlet", "name": "छापथोक", "population": null}}, {"type": "Feature", "geometry": {"type": "Point", "coordinates": [84.8898681, 28.0249517]}, "properties": {"place": "hamlet", "name": "डेगव", "population": null}}, {"type": "Feature", "geometry": {"type": "Point", "coordinates": [84.8967166, 28.0301497]}, "properties": {"place": "hamlet", "name": "बेलुङ", "population": null}}, {"type": "Feature", "geometry": {"type": "Point", "coordinates": [84.9033508, 28.0228189]}, "properties": {"place": "hamlet", "name": "कोरथोक", "population": null}}, {"type": "Feature", "geometry": {"type": "Point", "coordinates": [84.9923655, 28.0761514]}, "properties": {"place": "village", "name": "Dharna", "population": null}}, {"type": "Feature", "geometry": {"type": "Point", "coordinates": [85.019776, 28.0936633]}, "properties": {"place": "hamlet", "name": "साङ्ग्योङ", "population": null}}, {"type": "Feature", "geometry": {"type": "Point", "coordinates": [85.0291178, 28.1338314]}, "properties": {"place": "hamlet", "name": "गार्सयोङ", "population": null}}, {"type": "Feature", "geometry": {"type": "Point", "coordinates": [85.257103, 28.1580389]}, "properties": {"place": "hamlet", "name": "गोठेन", "population": null}}, {"type": "Feature", "geometry": {"type": "Point", "coordinates": [85.2768371, 28.1573925]}, "properties": {"place": "hamlet", "name": "गोदाम", "population": null}}, {"type": "Feature", "geometry": {"type": "Point", "coordinates": [85.3219356, 28.1665549]}, "properties": {"place": "hamlet", "name": "बाहुनडाँडा", "population": null}}, {"type": "Feature", "geometry": {"type": "Point", "coordinates": [85.3121197, 28.129782]}, "properties": {"place": "hamlet", "name": "ठुलो भार्खु", "population": null}}, {"type": "Feature", "geometry": {"type": "Point", "coordinates": [86.7097956, 27.8041662]}, "properties": {"place": "village", "name": "नाम्चे बजार", "population": null}}, {"type": "Feature", "geometry": {"type": "Point", "coordinates": [86.7646093, 27.8358088]}, "properties": {"place": "village", "name": "Tengboche", "population": null}}, {"type": "Feature", "geometry": {"type": "Point", "coordinates": [85.2388622, 27.8325156]}, "properties": {"place": "hamlet", "name": "रानीपौवा", "population": null}}, {"type": "Feature", "geometry": {"type": "Point", "coordinates": [84.9617538, 27.8116875]}, "properties": {"place": "hamlet", "name": "मासटार", "population": null}}, {"type": "Feature", "geometry": {"type": "Point", "coordinates": [84.6228073, 27.8724268]}, "properties": {"place": "hamlet", "name": "कुरिनटार", "population": null}}, {"type": "Feature", "geometry": {"type": "Point", "coordinates": [84.2693537, 27.9767129]}, "properties": {"place": "town", "name": "दमौली", "population": null}}, {"type": "Feature", "geometry": {"type": "Point", "coordinates": [83.8610679, 28.2867592]}, "properties": {"place": "hamlet", "name": "Ghattekhola", "population": null}}, {"type": "Feature", "geometry": {"type": "Point", "coordinates": [83.9540474, 28.2897422]}, "properties": {"place": "hamlet", "name": "Chitapani", "population": null}}, {"type": "Feature", "geometry": {"type": "Point", "coordinates": [83.9626745, 28.2935489]}, "properties": {"place": "village", "name": "Kashipaiva", "population": null}}, {"type": "Feature", "geometry": {"type": "Point", "coordinates": [83.9698757, 28.295257]}, "properties": {"place": "village", "name": "Lampata", "population": null}}, {"type": "Feature", "geometry": {"type": "Point", "coordinates": [83.9763902, 28.2983328]}, "properties": {"place": "village", "name": "Kewoare", "population": null}}, {"type": "Feature", "geometry": {"type": "Point", "coordinates": [83.9782313, 28.2905324]}, "properties": {"place": "village", "name": "Maidan", "population": null}}, {"type": "Feature", "geometry": {"type": "Point", "coordinates": [84.8771186, 27.8046804]}, "properties": {"place": "village", "name": "गजुरी", "population": null}}, {"type": "Feature", "geometry": {"type": "Point", "coordinates": [84.942947, 27.8069683]}, "properties": {"place": "hamlet", "name": "आदमघाट", "population": null}}, {"type": "Feature", "geometry": {"type": "Point", "coordinates": [85.0004606, 27.7973963]}, "properties": {"place": "town", "name": "गल्छी", "population": null}}, {"type": "Feature", "geometry": {"type": "Point", "coordinates": [85.109093, 27.7431073]}, "properties": {"place": "hamlet", "name": "जङ्गेखोला", "population": null}}, {"type": "Feature", "geometry": {"type": "Point", "coordinates": [81.625847, 28.058903]}, "properties": {"place": "city", "name": "नेपालगञ्ज", "population": "166258"}}, {"type": "Feature", "geometry": {"type": "Point", "coordinates": [85.9643829, 27.973045]}, "properties": {"place": "hamlet", "name": "樟木口岸 འགྲམ་འགག་སྒོ།", "population": null}}, {"type": "Feature", "geometry": {"type": "Point", "coordinates": [84.023117, 28.666111]}, "properties": {"place": "village", "name": "मनाङ", "population": null}}, {"type": "Feature", "geometry": {"type": "Point", "coordinates": [83.7843101, 28.8377595]}, "properties": {"place": "village", "name": "Kāgbeni", "population": null}}, {"type": "Feature", "geometry": {"type": "Point", "coordinates": [84.376144, 28.231316]}, "properties": {"place": "town", "name": "Besisahar", "population": "15442"}}, {"type": "Feature", "geometry": {"type": "Point", "coordinates": [84.3576238, 28.2809801]}, "properties": {"place": "village", "name": "Khudi", "population": null}}, {"type": "Feature", "geometry": {"type": "Point", "coordinates": [84.3715961, 28.2903142]}, "properties": {"place": "village", "name": "Bhulbhule", "population": null}}, {"type": "Feature", "geometry": {"type": "Point", "coordinates": [84.406303, 28.343073]}, "properties": {"place": "village", "name": "Bahundanda", "population": null}}, {"type": "Feature", "geometry": {"type": "Point", "coordinates": [83.774818, 28.3095021]}, "properties": {"place": "village", "name": "Birethanti", "population": null}}, {"type": "Feature", "geometry": {"type": "Point", "coordinates": [83.802, 28.3398641]}, "properties": {"place": "hamlet", "name": "Syauli Bazar", "population": null}}, {"type": "Feature", "geometry": {"type": "Point", "coordinates": [83.8255708, 28.3985344]}, "properties": {"place": "hamlet", "name": "New Bridge", "population": null}}, {"type": "Feature", "geometry": {"type": "Point", "coordinates": [83.7679074, 28.2981395]}, "properties": {"place": "village", "name": "Nayapul", "population": null}}, {"type": "Feature", "geometry": {"type": "Point", "coordinates": [83.7875192, 28.3204642]}, "properties": {"place": "hamlet", "name": "Lamakhet", "population": null}}, {"type": "Feature", "geometry": {"type": "Point", "coordinates": [83.7920407, 28.3236928]}, "properties": {"place": "hamlet", "name": "Chimrung", "population": null}}, {"type": "Feature", "geometry": {"type": "Point", "coordinates": [83.8042222, 28.3458924]}, "properties": {"place": "hamlet", "name": "Kliew", "population": null}}, {"type": "Feature", "geometry": {"type": "Point", "coordinates": [83.8182751, 28.4184939]}, "properties": {"place": "hamlet", "name": "Chhomrong", "population": null}}, {"type": "Feature", "geometry": {"type": "Point", "coordinates": [83.8261256, 28.4285697]}, "properties": {"place": "hamlet", "name": "Tilche", "population": null}}, {"type": "Feature", "geometry": {"type": "Point", "coordinates": [83.8384987, 28.4353061]}, "properties": {"place": "hamlet", "name": "Sinuwa", "population": null}}, {"type": "Feature", "geometry": {"type": "Point", "coordinates": [83.8569287, 28.4570214]}, "properties": {"place": "hamlet", "name": "Bamboo", "population": null}}, {"type": "Feature", "geometry": {"type": "Point", "coordinates": [83.8241298, 28.4096333]}, "properties": {"place": "hamlet", "name": "Jhinu Danda", "population": null}}, {"type": "Feature", "geometry": {"type": "Point", "coordinates": [83.822451, 28.4066333]}, "properties": {"place": "hamlet", "name": "Samrung", "population": null}}, {"type": "Feature", "geometry": {"type": "Point", "coordinates": [83.8699379, 28.4698802]}, "properties": {"place": "hamlet", "name": "Dovan", "population": null}}, {"type": "Feature", "geometry": {"type": "Point", "coordinates": [83.8886619, 28.4847685]}, "properties": {"place": "hamlet", "name": "Himalaya", "population": null}}, {"type": "Feature", "geometry": {"type": "Point", "coordinates": [83.8983343, 28.4975598]}, "properties": {"place": "hamlet", "name": "Deurali", "population": null}}, {"type": "Feature", "geometry": {"type": "Point", "coordinates": [83.6542661, 28.4967432]}, "properties": {"place": "village", "name": "Tatopani", "population": null}}, {"type": "Feature", "geometry": {"type": "Point", "coordinates": [83.6528938, 28.4710717]}, "properties": {"place": "village", "name": "Birauta", "population": null}}, {"type": "Feature", "geometry": {"type": "Point", "coordinates": [83.6564815, 28.4573917]}, "properties": {"place": "village", "name": "Ghara", "population": null}}, {"type": "Feature", "geometry": {"type": "Point", "coordinates": [83.6719568, 28.4442005]}, "properties": {"place": "village", "name": "Shikha", "population": null}}, {"type": "Feature", "geometry": {"type": "Point", "coordinates": [83.6802078, 28.4296052]}, "properties": {"place": "village", "name": "Phalate", "population": null}}, {"type": "Feature", "geometry": {"type": "Point", "coordinates": [83.6954916, 28.4225537]}, "properties": {"place": "village", "name": "Chitre", "population": null}}, {"type": "Feature", "geometry": {"type": "Point", "coordinates": [83.6999277, 28.4024938]}, "properties": {"place": "village", "name": "Ghorepani", "population": null}}, {"type": "Feature", "geometry": {"type": "Point", "coordinates": [83.7291045, 28.3968192]}, "properties": {"place": "hamlet", "name": "Deurali", "population": null}}, {"type": "Feature", "geometry": {"type": "Point", "coordinates": [83.7489931, 28.3942471]}, "properties": {"place": "hamlet", "name": "Ban Thanti", "population": null}}, {"type": "Feature", "geometry": {"type": "Point", "coordinates": [83.7652741, 28.3965191]}, "properties": {"place": "hamlet", "name": "Tadapani", "population": null}}, {"type": "Feature", "geometry": {"type": "Point", "coordinates": [83.7765772, 28.4062369]}, "properties": {"place": "hamlet", "name": "Chuile", "population": null}}, {"type": "Feature", "geometry": {"type": "Point", "coordinates": [83.7802443, 28.4076698]}, "properties": {"place": "hamlet", "name": "Siprong", "population": null}}, {"type": "Feature", "geometry": {"type": "Point", "coordinates": [83.7843744, 28.4084923]}, "properties": {"place": "hamlet", "name": "Klisengo(Ghurjung)", "population": null}}, {"type": "Feature", "geometry": {"type": "Point", "coordinates": [84.4020508, 28.3872662]}, "properties": {"place": "village", "name": "Syange", "population": null}}, {"type": "Feature", "geometry": {"type": "Point", "coordinates": [84.3737267, 28.4686207]}, "properties": {"place": "village", "name": "Tal", "population": null}}, {"type": "Feature", "geometry": {"type": "Point", "coordinates": [84.406494, 28.413029]}, "properties": {"place": "village", "name": "Jagat", "population": null}}, {"type": "Feature", "geometry": {"type": "Point", "coordinates": [84.2884104, 28.5482794]}, "properties": {"place": "village", "name": "Thanchok", "population": null}}, {"type": "Feature", "geometry": {"type": "Point", "coordinates": [84.3049152, 28.5271087]}, "properties": {"place": "village", "name": "Timang", "population": null}}, {"type": "Feature", "geometry": {"type": "Point", "coordinates": [84.3250238, 28.5330586]}, "properties": {"place": "village", "name": "Danagyu", "population": null}}, {"type": "Feature", "geometry": {"type": "Point", "coordinates": [84.339585, 28.5334946]}, "properties": {"place": "village", "name": "Bagarchhāp", "population": null}}, {"type": "Feature", "geometry": {"type": "Point", "coordinates": [84.3583825, 28.5189984]}, "properties": {"place": "village", "name": "Dharapani", "population": null}}, {"type": "Feature", "geometry": {"type": "Point", "coordinates": [84.3590449, 28.5062688]}, "properties": {"place": "hamlet", "name": "Karte", "population": null}}, {"type": "Feature", "geometry": {"type": "Point", "coordinates": [84.3612458, 28.4993098]}, "properties": {"place": "hamlet", "name": "Khorte", "population": null}}, {"type": "Feature", "geometry": {"type": "Point", "coordinates": [84.1530338, 28.6163626]}, "properties": {"place": "village", "name": "Upper Pisang", "population": null}}, {"type": "Feature", "geometry": {"type": "Point", "coordinates": [84.1474842, 28.6154314]}, "properties": {"place": "village", "name": "Lower Pisang", "population": null}}, {"type": "Feature", "geometry": {"type": "Point", "coordinates": [84.190354, 28.5728169]}, "properties": {"place": "hamlet", "name": "Bhratang", "population": null}}, {"type": "Feature", "geometry": {"type": "Point", "coordinates": [84.2264574, 28.5566578]}, "properties": {"place": "hamlet", "name": "Thaleku", "population": null}}, {"type": "Feature", "geometry": {"type": "Point", "coordinates": [84.2423535, 28.5507325]}, "properties": {"place": "village", "name": "Chame", "population": null}}, {"type": "Feature", "geometry": {"type": "Point", "coordinates": [84.0904806, 28.6382161]}, "properties": {"place": "hamlet", "name": "Humde", "population": null}}, {"type": "Feature", "geometry": {"type": "Point", "coordinates": [84.0534741, 28.6492247]}, "properties": {"place": "hamlet", "name": "Mungii", "population": null}}, {"type": "Feature", "geometry": {"type": "Point", "coordinates": [84.0398581, 28.6571956]}, "properties": {"place": "hamlet", "name": "Bhraga", "population": null}}, {"type": "Feature", "geometry": {"type": "Point", "coordinates": [83.8645884, 28.816192]}, "properties": {"place": "village", "name": "Ranipauwa", "population": null}}, {"type": "Feature", "geometry": {"type": "Point", "coordinates": [83.5469084, 27.866366]}, "properties": {"place": "town", "name": "Tansen", "population": null}}, {"type": "Feature", "geometry": {"type": "Point", "coordinates": [81.1400262, 28.3794531]}, "properties": {"place": "village", "name": "Katarnianghat", "population": null}}, {"type": "Feature", "geometry": {"type": "Point", "coordinates": [81.6909134, 28.1987467]}, "properties": {"place": "city", "name": "कोहलपुर", "population": "100289"}}, {"type": "Feature", "geometry": {"type": "Point", "coordinates": [85.0326586, 27.4295853]}, "properties": {"place": "city", "name": "हेटौँडा", "population": null}}, {"type": "Feature", "geometry": {"type": "Point", "coordinates": [83.686234, 28.751913]}, "properties": {"place": "village", "name": "Marpha", "population": null}}, {"type": "Feature", "geometry": {"type": "Point", "coordinates": [86.7306718, 27.6889719]}, "properties": {"place": "village", "name": "नेपाल", "population": null}}, {"type": "Feature", "geometry": {"type": "Point", "coordinates": [85.51973, 27.718508]}, "properties": {"place": "hamlet", "name": "नगरकोट", "population": null}}, {"type": "Feature", "geometry": {"type": "Point", "coordinates": [84.4066959, 27.9380224]}, "properties": {"place": "village", "name": "Bandipur", "population": null}}, {"type": "Feature", "geometry": {"type": "Point", "coordinates": [83.7422607, 28.3490622]}, "properties": {"place": "hamlet", "name": "Tikhe Dhunga", "population": null}}, {"type": "Feature", "geometry": {"type": "Point", "coordinates": [87.281617, 26.4623007]}, "properties": {"place": "city", "name": "विराटनगर", "population": "166674"}}, {"type": "Feature", "geometry": {"type": "Point", "coordinates": [85.2670114, 27.6116352]}, "properties": {"place": "hamlet", "name": "फर्पिङ", "population": null}}, {"type": "Feature", "geometry": {"type": "Point", "coordinates": [83.972645, 28.7767846]}, "properties": {"place": "hamlet", "name": "Thorong Phedi", "population": null}}, {"type": "Feature", "geometry": {"type": "Point", "coordinates": [80.38422, 29.57245]}, "properties": {"place": "hamlet", "name": "Jhulāghāt", "population": null}}, {"type": "Feature", "geometry": {"type": "Point", "coordinates": [80.38559, 29.6727]}, "properties": {"place": "village", "name": "Sunkholi", "population": null}}, {"type": "Feature", "geometry": {"type": "Point", "coordinates": [80.38147, 29.68506]}, "properties": {"place": "village", "name": "Bagrigaon", "population": null}}, {"type": "Feature", "geometry": {"type": "Point", "coordinates": [80.37735, 29.70017]}, "properties": {"place": "village", "name": "Dwalisera", "population": null}}, {"type": "Feature", "geometry": {"type": "Point", "coordinates": [80.71656, 30.02838]}, "properties": {"place": "village", "name": "Bhungti", "population": null}}, {"type": "Feature", "geometry": {"type": "Point", "coordinates": [80.7193, 30.02426]}, "properties": {"place": "village", "name": "Gullah", "population": null}}, {"type": "Feature", "geometry": {"type": "Point", "coordinates": [80.714547, 29.9975052]}, "properties": {"place": "hamlet", "name": "Mangti", "population": null}}, {"type": "Feature", "geometry": {"type": "Point", "coordinates": [80.6895435, 29.9800668]}, "properties": {"place": "village", "name": "Pangla", "population": null}}, {"type": "Feature", "geometry": {"type": "Point", "coordinates": [80.6856052, 29.9704962]}, "properties": {"place": "village", "name": "Ghasku", "population": null}}, {"type": "Feature", "geometry": {"type": "Point", "coordinates": [80.65476, 29.9707]}, "properties": {"place": "village", "name": "Narayan Ashram", "population": null}}, {"type": "Feature", "geometry": {"type": "Point", "coordinates": [80.63553, 29.98306]}, "properties": {"place": "village", "name": "Sosa", "population": null}}, {"type": "Feature", "geometry": {"type": "Point", "coordinates": [80.5995242, 29.9614818]}, "properties": {"place": "village", "name": "Tawaghat", "population": null}}, {"type": "Feature", "geometry": {"type": "Point", "coordinates": [80.57099, 29.92127]}, "properties": {"place": "village", "name": "Ela Gad", "population": null}}, {"type": "Feature", "geometry": {"type": "Point", "coordinates": [80.56824, 29.90891]}, "properties": {"place": "village", "name": "Kulagad", "population": null}}, {"type": "Feature", "geometry": {"type": "Point", "coordinates": [80.56275, 29.87732]}, "properties": {"place": "village", "name": "Dobat", "population": null}}, {"type": "Feature", "geometry": {"type": "Point", "coordinates": [80.559451, 29.8666326]}, "properties": {"place": "village", "name": "Tapovan", "population": null}}, {"type": "Feature", "geometry": {"type": "Point", "coordinates": [80.5414711, 29.8491135]}, "properties": {"place": "town", "name": "Dhārchula", "population": null}}, {"type": "Feature", "geometry": {"type": "Point", "coordinates": [80.51468, 29.82788]}, "properties": {"place": "village", "name": "Nigalpani", "population": null}}, {"type": "Feature", "geometry": {"type": "Point", "coordinates": [80.49271, 29.80866]}, "properties": {"place": "village", "name": "Kalika", "population": null}}, {"type": "Feature", "geometry": {"type": "Point", "coordinates": [80.42954, 29.80042]}, "properties": {"place": "hamlet", "name": "Balwakot", "population": null}}, {"type": "Feature", "geometry": {"type": "Point", "coordinates": [80.36225, 29.73587]}, "properties": {"place": "village", "name": "Titri", "population": null}}, {"type": "Feature", "geometry": {"type": "Point", "coordinates": [80.36225, 29.74274]}, "properties": {"place": "village", "name": "Bagrihat", "population": null}}, {"type": "Feature", "geometry": {"type": "Point", "coordinates": [80.376287, 29.7524071]}, "properties": {"place": "village", "name": "Jauljibi", "population": null}}, {"type": "Feature", "geometry": {"type": "Point", "coordinates": [80.2435846, 29.4437807]}, "properties": {"place": "village", "name": "Pancheshwar", "population": null}}, {"type": "Feature", "geometry": {"type": "Point", "coordinates": [81.152893, 28.628025]}, "properties": {"place": "town", "name": "Lamki Chuha", "population": null}}, {"type": "Feature", "geometry": {"type": "Point", "coordinates": [83.7304953, 28.7838097]}, "properties": {"place": "village", "name": "Jomsom", "population": null}}, {"type": "Feature", "geometry": {"type": "Point", "coordinates": [86.715119, 27.7144017]}, "properties": {"place": "village", "name": "Thadokosi", "population": null}}, {"type": "Feature", "geometry": {"type": "Point", "coordinates": [86.712692, 27.740133]}, "properties": {"place": "village", "name": "Phakding", "population": null}}, {"type": "Feature", "geometry": {"type": "Point", "coordinates": [86.711588, 27.7507424]}, "properties": {"place": "village", "name": "Zamphuti", "population": null}}, {"type": "Feature", "geometry": {"type": "Point", "coordinates": [86.7177859, 27.7628778]}, "properties": {"place": "village", "name": "Benkar", "population": null}}, {"type": "Feature", "geometry": {"type": "Point", "coordinates": [86.7231773, 27.7674294]}, "properties": {"place": "village", "name": "Chumoa", "population": null}}, {"type": "Feature", "geometry": {"type": "Point", "coordinates": [86.7229961, 27.7719229]}, "properties": {"place": "village", "name": "Monjo", "population": null}}, {"type": "Feature", "geometry": {"type": "Point", "coordinates": [83.807793, 28.376865]}, "properties": {"place": "village", "name": "Ghandruk", "population": null}}, {"type": "Feature", "geometry": {"type": "Point", "coordinates": [86.694588, 27.954088]}, "properties": {"place": "hamlet", "name": "Gokyo", "population": null}}, {"type": "Feature", "geometry": {"type": "Point", "coordinates": [86.7191261, 27.8934083]}, "properties": {"place": "hamlet", "name": "Luza", "population": null}}, {"type": "Feature", "geometry": {"type": "Point", "coordinates": [86.705812, 27.8233052]}, "properties": {"place": "village", "name": "खुन्दे", "population": null}}, {"type": "Feature", "geometry": {"type": "Point", "coordinates": [86.7172973, 27.8236229]}, "properties": {"place": "village", "name": "Khumjung", "population": null}}, {"type": "Feature", "geometry": {"type": "Point", "coordinates": [86.790169, 27.855783]}, "properties": {"place": "village", "name": "Pangboche", "population": null}}, {"type": "Feature", "geometry": {"type": "Point", "coordinates": [86.7493322, 27.8463454]}, "properties": {"place": "village", "name": "Phortse", "population": null}}, {"type": "Feature", "geometry": {"type": "Point", "coordinates": [86.71596, 27.7185834]}, "properties": {"place": "hamlet", "name": "Nurning Ghat", "population": null}}, {"type": "Feature", "geometry": {"type": "Point", "coordinates": [86.7220859, 27.7785498]}, "properties": {"place": "hamlet", "name": "जोरसले", "population": null}}, {"type": "Feature", "geometry": {"type": "Point", "coordinates": [83.6397406, 28.5682607]}, "properties": {"place": "hamlet", "name": "Myagdi", "population": null}}, {"type": "Feature", "geometry": {"type": "Point", "coordinates": [83.6383963, 28.5555169]}, "properties": {"place": "village", "name": "Rupse Chahara", "population": null}}, {"type": "Feature", "geometry": {"type": "Point", "coordinates": [83.6556164, 28.5123498]}, "properties": {"place": "hamlet", "name": "Githe", "population": null}}, {"type": "Feature", "geometry": {"type": "Point", "coordinates": [85.516022, 27.585045]}, "properties": {"place": "town", "name": "पनौती", "population": null}}, {"type": "Feature", "geometry": {"type": "Point", "coordinates": [86.828926, 27.980675]}, "properties": {"place": "hamlet", "name": "गोरक शेप", "population": null}}, {"type": "Feature", "geometry": {"type": "Point", "coordinates": [86.773517, 27.8418673]}, "properties": {"place": "village", "name": "Deboche", "population": null}}, {"type": "Feature", "geometry": {"type": "Point", "coordinates": [84.560951, 27.8561616]}, "properties": {"place": "hamlet", "name": "मुग्लिङ", "population": "1500"}}, {"type": "Feature", "geometry": {"type": "Point", "coordinates": [84.4301652, 27.6811896]}, "properties": {"place": "city", "name": "भरतपुर", "population": "369268"}}, {"type": "Feature", "geometry": {"type": "Point", "coordinates": [84.5081454, 27.5808007]}, "properties": {"place": "hamlet", "name": "Bachhauli", "population": null}}, {"type": "Feature", "geometry": {"type": "Point", "coordinates": [83.6407511, 27.6057983]}, "properties": {"place": "village", "name": "Sunwal", "population": null}}, {"type": "Feature", "geometry": {"type": "Point", "coordinates": [83.7572281, 27.9817718]}, "properties": {"place": "town", "name": "Wāling", "population": "24006"}}, {"type": "Feature", "geometry": {"type": "Point", "coordinates": [87.9914702, 26.643393]}, "properties": {"place": "city", "name": "बिर्तामोड", "population": "139500"}}, {"type": "Feature", "geometry": {"type": "Point", "coordinates": [87.7011507, 26.6650146]}, "properties": {"place": "city", "name": "दमक", "population": "107500"}}, {"type": "Feature", "geometry": {"type": "Point", "coordinates": [83.453148, 27.512726]}, "properties": {"place": "town", "name": "सिद्धार्थनगर", "population": "63483"}}, {"type": "Feature", "geometry": {"type": "Point", "coordinates": [84.8763804, 27.0135196]}, "properties": {"place": "city", "name": "वीरगञ्ज", "population": "135904"}}, {"type": "Feature", "geometry": {"type": "Point", "coordinates": [85.9825411, 27.9918815]}, "properties": {"place": "town", "name": "樟木镇 འགྲམ་", "population": null}}, {"type": "Feature", "geometry": {"type": "Point", "coordinates": [87.6949009, 27.3514005]}, "properties": {"place": "hamlet", "name": "सुकेटार", "population": null}}, {"type": "Feature", "geometry": {"type": "Point", "coordinates": [87.7508001, 27.3704989]}, "properties": {"place": "hamlet", "name": "लाली खर्क", "population": null}}, {"type": "Feature", "geometry": {"type": "Point", "coordinates": [87.8132319, 27.3676332]}, "properties": {"place": "hamlet", "name": "सिंचेवा भञ्ज्याङ", "population": null}}, {"type": "Feature", "geometry": {"type": "Point", "coordinates": [87.8635282, 27.4078213]}, "properties": {"place": "hamlet", "name": "फुम्फे डाँडा", "population": null}}, {"type": "Feature", "geometry": {"type": "Point", "coordinates": [87.9085066, 27.4513123]}, "properties": {"place": "hamlet", "name": "याम्फुदिन", "population": null}}, {"type": "Feature", "geometry": {"type": "Point", "coordinates": [87.8699153, 27.4220958]}, "properties": {"place": "hamlet", "name": "मामाङखे", "population": null}}, {"type": "Feature", "geometry": {"type": "Point", "coordinates": [87.9134421, 27.5280926]}, "properties": {"place": "hamlet", "name": "टोर्टोङ", "population": null}}, {"type": "Feature", "geometry": {"type": "Point", "coordinates": [87.9773269, 27.5691746]}, "properties": {"place": "hamlet", "name": "Tseram", "population": null}}, {"type": "Feature", "geometry": {"type": "Point", "coordinates": [88.0313801, 27.5940731]}, "properties": {"place": "hamlet", "name": "राम्चे", "population": null}}, {"type": "Feature", "geometry": {"type": "Point", "coordinates": [87.936432, 27.660812]}, "properties": {"place": "hamlet", "name": "घुन्सा", "population": null}}, {"type": "Feature", "geometry": {"type": "Point", "coordinates": [85.3557436, 28.134476]}, "properties": {"place": "hamlet", "name": "दुर्सागाङ", "population": null}}, {"type": "Feature", "geometry": {"type": "Point", "coordinates": [88.0356137, 27.7900712]}, "properties": {"place": "hamlet", "name": "लोनाक", "population": null}}, {"type": "Feature", "geometry": {"type": "Point", "coordinates": [85.3798387, 28.0923978]}, "properties": {"place": "hamlet", "name": "लौरिबिना", "population": null}}, {"type": "Feature", "geometry": {"type": "Point", "coordinates": [85.4098303, 28.0839368]}, "properties": {"place": "hamlet", "name": "गोसाइँकुण्ड", "population": null}}, {"type": "Feature", "geometry": {"type": "Point", "coordinates": [85.3401621, 28.1108705]}, "properties": {"place": "hamlet", "name": "चंदन बाडी", "population": null}}, {"type": "Feature", "geometry": {"type": "Point", "coordinates": [88.1100906, 27.7878398]}, "properties": {"place": "hamlet", "name": "Pangpema", "population": null}}, {"type": "Feature", "geometry": {"type": "Point", "coordinates": [87.9177639, 27.6418759]}, "properties": {"place": "hamlet", "name": "फले", "population": null}}, {"type": "Feature", "geometry": {"type": "Point", "coordinates": [87.8576473, 27.5673093]}, "properties": {"place": "hamlet", "name": "अम्जिलोसा", "population": null}}, {"type": "Feature", "geometry": {"type": "Point", "coordinates": [87.8054522, 27.5382536]}, "properties": {"place": "hamlet", "name": "सेकाथुम", "population": null}}, {"type": "Feature", "geometry": {"type": "Point", "coordinates": [87.771927, 27.491558]}, "properties": {"place": "hamlet", "name": "तापेथोक", "population": null}}, {"type": "Feature", "geometry": {"type": "Point", "coordinates": [87.7099138, 27.3972513]}, "properties": {"place": "hamlet", "name": "Bhanjyang", "population": null}}, {"type": "Feature", "geometry": {"type": "Point", "coordinates": [87.7404382, 27.4876011]}, "properties": {"place": "hamlet", "name": "चिरवा", "population": null}}, {"type": "Feature", "geometry": {"type": "Point", "coordinates": [87.6727257, 27.3586978]}, "properties": {"place": "town", "name": "फुङलिङ", "population": null}}, {"type": "Feature", "geometry": {"type": "Point", "coordinates": [85.5264188, 28.2153798]}, "properties": {"place": "hamlet", "name": "सिङ्ग्दुम", "population": null}}, {"type": "Feature", "geometry": {"type": "Point", "coordinates": [85.5205823, 28.2157231]}, "properties": {"place": "hamlet", "name": "मुण्डु", "population": null}}, {"type": "Feature", "geometry": {"type": "Point", "coordinates": [86.7177746, 27.7038149]}, "properties": {"place": "village", "name": "Cheplung", "population": null}}, {"type": "Feature", "geometry": {"type": "Point", "coordinates": [86.7142319, 27.7235591]}, "properties": {"place": "village", "name": "चुथावा", "population": null}}, {"type": "Feature", "geometry": {"type": "Point", "coordinates": [86.710861, 27.811865]}, "properties": {"place": "village", "name": "स्याङ्बोचे", "population": null}}, {"type": "Feature", "geometry": {"type": "Point", "coordinates": [86.6471787, 27.8371188]}, "properties": {"place": "hamlet", "name": "Thametang", "population": null}}, {"type": "Feature", "geometry": {"type": "Point", "coordinates": [86.6504789, 27.8318868]}, "properties": {"place": "village", "name": "Thame", "population": null}}, {"type": "Feature", "geometry": {"type": "Point", "coordinates": [86.6425453, 27.8470534]}, "properties": {"place": "hamlet", "name": "Hungmo", "population": null}}, {"type": "Feature", "geometry": {"type": "Point", "coordinates": [86.6405322, 27.8668897]}, "properties": {"place": "hamlet", "name": "Tarangar", "population": null}}, {"type": "Feature", "geometry": {"type": "Point", "coordinates": [86.6368762, 27.9052515]}, "properties": {"place": "hamlet", "name": "Laṅden", "population": null}}, {"type": "Feature", "geometry": {"type": "Point", "coordinates": [86.6383691, 27.8882186]}, "properties": {"place": "hamlet", "name": "Marulung", "population": null}}, {"type": "Feature", "geometry": {"type": "Point", "coordinates": [86.6879968, 27.8152613]}, "properties": {"place": "village", "name": "Samshing", "population": null}}, {"type": "Feature", "geometry": {"type": "Point", "coordinates": [86.6783161, 27.8223915]}, "properties": {"place": "village", "name": "Thamo", "population": null}}, {"type": "Feature", "geometry": {"type": "Point", "coordinates": [86.6655183, 27.8288282]}, "properties": {"place": "village", "name": "Samde", "population": null}}, {"type": "Feature", "geometry": {"type": "Point", "coordinates": [86.686222, 27.8184595]}, "properties": {"place": "hamlet", "name": "Theso", "population": null}}, {"type": "Feature", "geometry": {"type": "Point", "coordinates": [86.731111, 27.8230283]}, "properties": {"place": "hamlet", "name": "क्याङजुमा", "population": null}}, {"type": "Feature", "geometry": {"type": "Point", "coordinates": [86.7407826, 27.8312685]}, "properties": {"place": "hamlet", "name": "Tashinga", "population": null}}, {"type": "Feature", "geometry": {"type": "Point", "coordinates": [86.8053944, 27.8677387]}, "properties": {"place": "village", "name": "Shomare", "population": null}}, {"type": "Feature", "geometry": {"type": "Point", "coordinates": [86.8713664, 27.904665]}, "properties": {"place": "village", "name": "Chukhung", "population": null}}, {"type": "Feature", "geometry": {"type": "Point", "coordinates": [85.3166069, 27.6765635]}, "properties": {"place": "city", "name": "ललितपुर", "population": "254000"}}, {"type": "Feature", "geometry": {"type": "Point", "coordinates": [86.8101734, 27.9480989]}, "properties": {"place": "hamlet", "name": "लोबुचे", "population": "20"}}, {"type": "Feature", "geometry": {"type": "Point", "coordinates": [86.7304167, 27.8254057]}, "properties": {"place": "hamlet", "name": "सनासा", "population": null}}, {"type": "Feature", "geometry": {"type": "Point", "coordinates": [86.7464264, 27.8318289]}, "properties": {"place": "hamlet", "name": "Phunki Thanga", "population": null}}, {"type": "Feature", "geometry": {"type": "Point", "coordinates": [86.7780684, 27.8459167]}, "properties": {"place": "village", "name": "Millingo", "population": null}}, {"type": "Feature", "geometry": {"type": "Point", "coordinates": [87.2641954, 26.398946]}, "properties": {"place": "town", "name": "Jogbani", "population": "5000"}}, {"type": "Feature", "geometry": {"type": "Point", "coordinates": [83.418656, 27.4272664]}, "properties": {"place": "town", "name": "Nautanwa", "population": null}}, {"type": "Feature", "geometry": {"type": "Point", "coordinates": [85.9249005, 26.7284541]}, "properties": {"place": "city", "name": "जनकपुर", "population": "95000"}}, {"type": "Feature", "geometry": {"type": "Point", "coordinates": [87.2839978, 26.8128974]}, "properties": {"place": "city", "name": "धरान", "population": null}}, {"type": "Feature", "geometry": {"type": "Point", "coordinates": [84.4622678, 28.0343132]}, "properties": {"place": "village", "name": "Turture", "population": null}}, {"type": "Feature", "geometry": {"type": "Point", "coordinates": [84.3996581, 28.3094006]}, "properties": {"place": "hamlet", "name": "Nadi Bazar", "population": null}}, {"type": "Feature", "geometry": {"type": "Point", "coordinates": [84.137268, 28.641804]}, "properties": {"place": "hamlet", "name": "Ghyaru", "population": null}}, {"type": "Feature", "geometry": {"type": "Point", "coordinates": [84.1794223, 28.6023492]}, "properties": {"place": "hamlet", "name": "Dhikur Pokhari", "population": null}}, {"type": "Feature", "geometry": {"type": "Point", "coordinates": [83.9674885, 28.7829341]}, "properties": {"place": "hamlet", "name": "Thorong High Camp", "population": null}}, {"type": "Feature", "geometry": {"type": "Point", "coordinates": [83.9734369, 28.6697278]}, "properties": {"place": "village", "name": "Khangsar", "population": null}}, {"type": "Feature", "geometry": {"type": "Point", "coordinates": [84.3359872, 28.5380869]}, "properties": {"place": "hamlet", "name": "Ghimlung", "population": null}}, {"type": "Feature", "geometry": {"type": "Point", "coordinates": [84.3375959, 28.54006]}, "properties": {"place": "hamlet", "name": "Tachai", "population": null}}, {"type": "Feature", "geometry": {"type": "Point", "coordinates": [84.3365137, 28.5368217]}, "properties": {"place": "hamlet", "name": "Nasku", "population": null}}, {"type": "Feature", "geometry": {"type": "Point", "coordinates": [84.3020691, 28.5433669]}, "properties": {"place": "hamlet", "name": "Lata Marang", "population": null}}, {"type": "Feature", "geometry": {"type": "Point", "coordinates": [84.3783852, 28.446153]}, "properties": {"place": "hamlet", "name": "Sattale", "population": null}}, {"type": "Feature", "geometry": {"type": "Point", "coordinates": [84.3541346, 28.5271966]}, "properties": {"place": "hamlet", "name": "Thoche", "population": null}}, {"type": "Feature", "geometry": {"type": "Point", "coordinates": [83.9398964, 29.2064919]}, "properties": {"place": "village", "name": "Thinkar", "population": null}}, {"type": "Feature", "geometry": {"type": "Point", "coordinates": [83.9500144, 29.1913581]}, "properties": {"place": "village", "name": "Namgyal", "population": null}}, {"type": "Feature", "geometry": {"type": "Point", "coordinates": [83.9497517, 29.2020297]}, "properties": {"place": "village", "name": "Phuwa", "population": null}}, {"type": "Feature", "geometry": {"type": "Point", "coordinates": [83.9563037, 29.1828351]}, "properties": {"place": "town", "name": "Lo Manthang", "population": null}}, {"type": "Feature", "geometry": {"type": "Point", "coordinates": [83.8776805, 29.0908524]}, "properties": {"place": "village", "name": "Dhakmar", "population": null}}, {"type": "Feature", "geometry": {"type": "Point", "coordinates": [83.9322744, 29.0926126]}, "properties": {"place": "village", "name": "Charang", "population": null}}, {"type": "Feature", "geometry": {"type": "Point", "coordinates": [83.8885349, 29.1243677]}, "properties": {"place": "hamlet", "name": "Ghar Gompa", "population": null}}, {"type": "Feature", "geometry": {"type": "Point", "coordinates": [83.8270014, 28.9310616]}, "properties": {"place": "village", "name": "Chele", "population": null}}, {"type": "Feature", "geometry": {"type": "Point", "coordinates": [83.7353803, 28.3567318]}, "properties": {"place": "village", "name": "Ulleri", "population": null}}, {"type": "Feature", "geometry": {"type": "Point", "coordinates": [83.7103268, 28.3841654]}, "properties": {"place": "hamlet", "name": "Nangethanti", "population": null}}, {"type": "Feature", "geometry": {"type": "Point", "coordinates": [83.7323888, 28.3683286]}, "properties": {"place": "hamlet", "name": "Ban Thanti", "population": null}}, {"type": "Feature", "geometry": {"type": "Point", "coordinates": [83.8350851, 28.9082875]}, "properties": {"place": "village", "name": "Tetang", "population": null}}, {"type": "Feature", "geometry": {"type": "Point", "coordinates": [83.7794751, 28.3870238]}, "properties": {"place": "hamlet", "name": "Bhaisi Kharka", "population": null}}, {"type": "Feature", "geometry": {"type": "Point", "coordinates": [83.825821, 28.3712685]}, "properties": {"place": "hamlet", "name": "Landruk", "population": null}}, {"type": "Feature", "geometry": {"type": "Point", "coordinates": [83.8290351, 28.3517291]}, "properties": {"place": "hamlet", "name": "Tolka", "population": null}}, {"type": "Feature", "geometry": {"type": "Point", "coordinates": [83.8300253, 28.3299232]}, "properties": {"place": "hamlet", "name": "Pittam Deurali", "population": null}}, {"type": "Feature", "geometry": {"type": "Point", "coordinates": [83.8186543, 28.3729126]}, "properties": {"place": "hamlet", "name": "Kyumi", "population": null}}, {"type": "Feature", "geometry": {"type": "Point", "coordinates": [83.858681, 28.300303]}, "properties": {"place": "village", "name": "Dhampus", "population": null}}, {"type": "Feature", "geometry": {"type": "Point", "coordinates": [83.863934, 28.2968012]}, "properties": {"place": "hamlet", "name": "Lower Dhampus", "population": null}}, {"type": "Feature", "geometry": {"type": "Point", "coordinates": [83.8716765, 28.2916661]}, "properties": {"place": "hamlet", "name": "Phedi", "population": null}}, {"type": "Feature", "geometry": {"type": "Point", "coordinates": [83.8304552, 28.3134344]}, "properties": {"place": "hamlet", "name": "Pothana", "population": null}}, {"type": "Feature", "geometry": {"type": "Point", "coordinates": [83.8316494, 28.3385973]}, "properties": {"place": "hamlet", "name": "Bherikharka", "population": null}}, {"type": "Feature", "geometry": {"type": "Point", "coordinates": [81.2564508, 29.1409232]}, "properties": {"place": "town", "name": "Mangalsen", "population": null}}, {"type": "Feature", "geometry": {"type": "Point", "coordinates": [80.8575277, 30.1251387]}, "properties": {"place": "village", "name": "Garbyāng", "population": null}}, {"type": "Feature", "geometry": {"type": "Point", "coordinates": [81.2205442, 29.9644702]}, "properties": {"place": "village", "name": "Sāipāl", "population": null}}, {"type": "Feature", "geometry": {"type": "Point", "coordinates": [81.4988742, 30.093223]}, "properties": {"place": "hamlet", "name": null, "population": null}}, {"type": "Feature", "geometry": {"type": "Point", "coordinates": [85.3777789, 28.2777749]}, "properties": {"place": "hamlet", "name": "रसुवागढी", "population": null}}, {"type": "Feature", "geometry": {"type": "Point", "coordinates": [85.7942243, 27.9429656]}, "properties": {"place": "hamlet", "name": "बोल्दे", "population": null}}, {"type": "Feature", "geometry": {"type": "Point", "coordinates": [85.9814176, 27.5053821]}, "properties": {"place": "hamlet", "name": "सुर्के", "population": null}}, {"type": "Feature", "geometry": {"type": "Point", "coordinates": [85.8131285, 27.4542897]}, "properties": {"place": "hamlet", "name": "माझीगाउँ", "population": null}}, {"type": "Feature", "geometry": {"type": "Point", "coordinates": [85.8100574, 27.45796]}, "properties": {"place": "hamlet", "name": "लुबुघाट", "population": null}}, {"type": "Feature", "geometry": {"type": "Point", "coordinates": [85.9259799, 27.6840561]}, "properties": {"place": "hamlet", "name": "मुढे", "population": null}}, {"type": "Feature", "geometry": {"type": "Point", "coordinates": [85.9669902, 27.5574318]}, "properties": {"place": "hamlet", "name": "Kholakharka", "population": null}}, {"type": "Feature", "geometry": {"type": "Point", "coordinates": [84.4161979, 27.553782]}, "properties": {"place": "hamlet", "name": "Park Rangers", "population": null}}, {"type": "Feature", "geometry": {"type": "Point", "coordinates": [84.4724466, 27.5800389]}, "properties": {"place": "hamlet", "name": "थारु", "population": null}}, {"type": "Feature", "geometry": {"type": "Point", "coordinates": [84.3607023, 27.5706322]}, "properties": {"place": "hamlet", "name": "घाटगाईं", "population": null}}, {"type": "Feature", "geometry": {"type": "Point", "coordinates": [84.3602857, 27.5790451]}, "properties": {"place": "hamlet", "name": "बनकट्टा", "population": null}}, {"type": "Feature", "geometry": {"type": "Point", "coordinates": [84.3608111, 27.5552919]}, "properties": {"place": "hamlet", "name": "Park Rangers Camp", "population": null}}, {"type": "Feature", "geometry": {"type": "Point", "coordinates": [84.5010713, 27.6269244]}, "properties": {"place": "hamlet", "name": "Nipani", "population": null}}, {"type": "Feature", "geometry": {"type": "Point", "coordinates": [83.566635, 28.344498]}, "properties": {"place": "town", "name": "Beni", "population": null}}, {"type": "Feature", "geometry": {"type": "Point", "coordinates": [83.6029924, 28.2651055]}, "properties": {"place": "town", "name": "बागलुङ", "population": "29360"}}, {"type": "Feature", "geometry": {"type": "Point", "coordinates": [84.4029187, 28.3818568]}, "properties": {"place": "village", "name": "Ghermu", "population": null}}, {"type": "Feature", "geometry": {"type": "Point", "coordinates": [84.8966189, 28.3933175]}, "properties": {"place": "village", "name": "Philim", "population": null}}, {"type": "Feature", "geometry": {"type": "Point", "coordinates": [84.6440443, 28.5846748]}, "properties": {"place": "village", "name": "सामागाउ‌‍‍‍", "population": null}}, {"type": "Feature", "geometry": {"type": "Point", "coordinates": [84.6245424, 28.6578808]}, "properties": {"place": "hamlet", "name": "Larke Bazar", "population": null}}, {"type": "Feature", "geometry": {"type": "Point", "coordinates": [84.8737685, 28.229313]}, "properties": {"place": "village", "name": "Machhakhola", "population": null}}, {"type": "Feature", "geometry": {"type": "Point", "coordinates": [84.8985132, 28.2756939]}, "properties": {"place": "hamlet", "name": "Tatopani", "population": null}}, {"type": "Feature", "geometry": {"type": "Point", "coordinates": [84.8958597, 28.351414]}, "properties": {"place": "village", "name": "Jagat", "population": null}}, {"type": "Feature", "geometry": {"type": "Point", "coordinates": [84.4032308, 28.568389]}, "properties": {"place": "village", "name": "Gho", "population": null}}, {"type": "Feature", "geometry": {"type": "Point", "coordinates": [84.9058538, 28.2954735]}, "properties": {"place": "village", "name": "Dobhan", "population": null}}, {"type": "Feature", "geometry": {"type": "Point", "coordinates": [84.8257153, 28.5312331]}, "properties": {"place": "village", "name": "Ghap", "population": null}}, {"type": "Feature", "geometry": {"type": "Point", "coordinates": [84.3811861, 28.5451853]}, "properties": {"place": "village", "name": "Tilche", "population": null}}, {"type": "Feature", "geometry": {"type": "Point", "coordinates": [80.8278931, 30.1021621]}, "properties": {"place": "hamlet", "name": "Budhi", "population": null}}, {"type": "Feature", "geometry": {"type": "Point", "coordinates": [88.1178258, 26.5271994]}, "properties": {"place": "village", "name": "Galgalia", "population": null}}, {"type": "Feature", "geometry": {"type": "Point", "coordinates": [83.6792805, 28.7333011]}, "properties": {"place": "hamlet", "name": "Chhairo", "population": null}}, {"type": "Feature", "geometry": {"type": "Point", "coordinates": [84.4035901, 28.3341477]}, "properties": {"place": "hamlet", "name": "Lampata", "population": null}}, {"type": "Feature", "geometry": {"type": "Point", "coordinates": [86.819991, 27.8933858]}, "properties": {"place": "hamlet", "name": "फेरिचे", "population": null}}, {"type": "Feature", "geometry": {"type": "Point", "coordinates": [86.5832609, 27.5731133]}, "properties": {"place": "village", "name": "Salung", "population": null}}, {"type": "Feature", "geometry": {"type": "Point", "coordinates": [86.2953419, 27.6091066]}, "properties": {"place": "hamlet", "name": "शिवालय", "population": null}}, {"type": "Feature", "geometry": {"type": "Point", "coordinates": [83.9427179, 28.2273156]}, "properties": {"place": "village", "name": "खपौडी", "population": null}}, {"type": "Feature", "geometry": {"type": "Point", "coordinates": [84.4218417, 27.9529236]}, "properties": {"place": "village", "name": "Bimalnagar", "population": null}}, {"type": "Feature", "geometry": {"type": "Point", "coordinates": [84.363818, 27.9468823]}, "properties": {"place": "village", "name": "Ramkot", "population": null}}, {"type": "Feature", "geometry": {"type": "Point", "coordinates": [84.3477879, 27.9468457]}, "properties": {"place": "village", "name": "Kulumg", "population": null}}, {"type": "Feature", "geometry": {"type": "Point", "coordinates": [84.343781, 27.926256]}, "properties": {"place": "village", "name": "Keshavtar", "population": null}}, {"type": "Feature", "geometry": {"type": "Point", "coordinates": [84.2372952, 28.6554334]}, "properties": {"place": "village", "name": "Meta", "population": null}}, {"type": "Feature", "geometry": {"type": "Point", "coordinates": [84.198631, 28.681078]}, "properties": {"place": "village", "name": "Naar", "population": null}}, {"type": "Feature", "geometry": {"type": "Point", "coordinates": [84.2958576, 28.5430569]}, "properties": {"place": "village", "name": "Kurung", "population": null}}, {"type": "Feature", "geometry": {"type": "Point", "coordinates": [83.9345143, 28.2561886]}, "properties": {"place": "village", "name": "तोरीपानी", "population": null}}, {"type": "Feature", "geometry": {"type": "Point", "coordinates": [85.4483889, 27.8255523]}, "properties": {"place": "hamlet", "name": "Chisapani", "population": null}}, {"type": "Feature", "geometry": {"type": "Point", "coordinates": [85.4977503, 27.7642043]}, "properties": {"place": "hamlet", "name": "चौकी भनञ्याङ", "population": null}}, {"type": "Feature", "geometry": {"type": "Point", "coordinates": [83.9069207, 28.6801824]}, "properties": {"place": "hamlet", "name": "Tilicho Base Camp", "population": null}}, {"type": "Feature", "geometry": {"type": "Point", "coordinates": [83.9737959, 28.7227197]}, "properties": {"place": "hamlet", "name": "Yak Kharka", "population": null}}, {"type": "Feature", "geometry": {"type": "Point", "coordinates": [83.8637271, 28.1378668]}, "properties": {"place": "hamlet", "name": "Bhalu Pahad", "population": null}}, {"type": "Feature", "geometry": {"type": "Point", "coordinates": [83.914572, 28.2657064]}, "properties": {"place": "village", "name": "Pokharepani", "population": null}}, {"type": "Feature", "geometry": {"type": "Point", "coordinates": [83.9078474, 28.2661726]}, "properties": {"place": "village", "name": "Kaskikot", "population": null}}, {"type": "Feature", "geometry": {"type": "Point", "coordinates": [83.8837668, 28.2769934]}, "properties": {"place": "hamlet", "name": "Phallapani", "population": null}}, {"type": "Feature", "geometry": {"type": "Point", "coordinates": [83.8558171, 28.2963233]}, "properties": {"place": "village", "name": "Dhampus Phedi", "population": null}}, {"type": "Feature", "geometry": {"type": "Point", "coordinates": [83.8282946, 28.3044635]}, "properties": {"place": "hamlet", "name": "Australian Camp", "population": null}}, {"type": "Feature", "geometry": {"type": "Point", "coordinates": [83.8023028, 28.2992518]}, "properties": {"place": "village", "name": "Lumle", "population": null}}, {"type": "Feature", "geometry": {"type": "Point", "coordinates": [83.7856004, 28.3050601]}, "properties": {"place": "village", "name": "Chandrakot", "population": null}}, {"type": "Feature", "geometry": {"type": "Point", "coordinates": [83.8167663, 28.2726281]}, "properties": {"place": "village", "name": "Taliban", "population": null}}, {"type": "Feature", "geometry": {"type": "Point", "coordinates": [83.8205161, 28.2644781]}, "properties": {"place": "village", "name": "Bhadaure", "population": null}}, {"type": "Feature", "geometry": {"type": "Point", "coordinates": [83.8340827, 28.2820199]}, "properties": {"place": "village", "name": "Dharapani", "population": null}}, {"type": "Feature", "geometry": {"type": "Point", "coordinates": [84.0917743, 28.2124134]}, "properties": {"place": "village", "name": "Madothan", "population": null}}, {"type": "Feature", "geometry": {"type": "Point", "coordinates": [83.8182029, 28.4140364]}, "properties": {"place": "hamlet", "name": "Taulung", "population": null}}, {"type": "Feature", "geometry": {"type": "Point", "coordinates": [83.7863696, 28.4089981]}, "properties": {"place": "hamlet", "name": "Gurjung", "population": null}}, {"type": "Feature", "geometry": {"type": "Point", "coordinates": [83.8047307, 28.3562961]}, "properties": {"place": "hamlet", "name": "Kimche", "population": null}}, {"type": "Feature", "geometry": {"type": "Point", "coordinates": [85.5683124, 27.5765185]}, "properties": {"place": "hamlet", "name": "शङ्खु गाउँ", "population": null}}, {"type": "Feature", "geometry": {"type": "Point", "coordinates": [85.5454286, 27.5759146]}, "properties": {"place": "hamlet", "name": "बास्थेली", "population": null}}, {"type": "Feature", "geometry": {"type": "Point", "coordinates": [85.5398767, 27.5790006]}, "properties": {"place": "hamlet", "name": "सुनथान", "population": null}}, {"type": "Feature", "geometry": {"type": "Point", "coordinates": [83.8714547, 28.8169164]}, "properties": {"place": "hamlet", "name": "मुक्तिनाथ", "population": null}}, {"type": "Feature", "geometry": {"type": "Point", "coordinates": [86.9616386, 26.5129021]}, "properties": {"place": "hamlet", "name": "Bhimnagar", "population": null}}, {"type": "Feature", "geometry": {"type": "Point", "coordinates": [83.911858, 28.322727]}, "properties": {"place": "hamlet", "name": "Rivan", "population": null}}, {"type": "Feature", "geometry": {"type": "Point", "coordinates": [83.9117314, 28.3202138]}, "properties": {"place": "hamlet", "name": "Sagidada", "population": null}}, {"type": "Feature", "geometry": {"type": "Point", "coordinates": [83.9139428, 28.3181798]}, "properties": {"place": "hamlet", "name": "charyam", "population": null}}, {"type": "Feature", "geometry": {"type": "Point", "coordinates": [83.8932162, 28.327723]}, "properties": {"place": "hamlet", "name": "Naya Pul", "population": null}}, {"type": "Feature", "geometry": {"type": "Point", "coordinates": [85.5330155, 27.7365745]}, "properties": {"place": "hamlet", "name": "डाँडागाउँ", "population": null}}, {"type": "Feature", "geometry": {"type": "Point", "coordinates": [85.5365534, 27.7258378]}, "properties": {"place": "hamlet", "name": "गैरीगाउँ", "population": null}}, {"type": "Feature", "geometry": {"type": "Point", "coordinates": [85.5434352, 27.7294916]}, "properties": {"place": "hamlet", "name": "मस्यरगाउँ", "population": null}}, {"type": "Feature", "geometry": {"type": "Point", "coordinates": [85.5518697, 27.7334092]}, "properties": {"place": "hamlet", "name": "छपगाउँ", "population": null}}, {"type": "Feature", "geometry": {"type": "Point", "coordinates": [85.5378552, 27.7127203]}, "properties": {"place": "hamlet", "name": "छिट्टे गाउँ", "population": null}}, {"type": "Feature", "geometry": {"type": "Point", "coordinates": [86.7106212, 27.7538442]}, "properties": {"place": "village", "name": "Toc Toc", "population": null}}, {"type": "Feature", "geometry": {"type": "Point", "coordinates": [80.567017, 28.703304]}, "properties": {"place": "city", "name": "धनगढी", "population": "102000"}}, {"type": "Feature", "geometry": {"type": "Point", "coordinates": [80.7693405, 28.5418746]}, "properties": {"place": "village", "name": "Chandan Chauky", "population": null}}, {"type": "Feature", "geometry": {"type": "Point", "coordinates": [80.5550637, 28.6825667]}, "properties": {"place": "village", "name": "Gauri Phanta", "population": null}}, {"type": "Feature", "geometry": {"type": "Point", "coordinates": [86.0205262, 26.7610947]}, "properties": {"place": "village", "name": "बेल्ही", "population": null}}, {"type": "Feature", "geometry": {"type": "Point", "coordinates": [85.9938058, 26.7782889]}, "properties": {"place": "hamlet", "name": "करहिया", "population": null}}, {"type": "Feature", "geometry": {"type": "Point", "coordinates": [86.0004781, 26.7747891]}, "properties": {"place": "hamlet", "name": "खटावे (ख)", "population": null}}, {"type": "Feature", "geometry": {"type": "Point", "coordinates": [85.9940261, 26.7623372]}, "properties": {"place": "hamlet", "name": "खटावे (क)", "population": null}}, {"type": "Feature", "geometry": {"type": "Point", "coordinates": [85.989614, 26.760304]}, "properties": {"place": "hamlet", "name": "पचबारी", "population": null}}, {"type": "Feature", "geometry": {"type": "Point", "coordinates": [85.9929586, 26.7594146]}, "properties": {"place": "village", "name": "Purbari", "population": null}}, {"type": "Feature", "geometry": {"type": "Point", "coordinates": [85.527698, 27.7144459]}, "properties": {"place": "hamlet", "name": "कफ्लेनी गाउँ", "population": null}}, {"type": "Feature", "geometry": {"type": "Point", "coordinates": [85.5310507, 27.7074781]}, "properties": {"place": "hamlet", "name": "मकैबारी गाउँ", "population": null}}, {"type": "Feature", "geometry": {"type": "Point", "coordinates": [85.5391549, 27.6993015]}, "properties": {"place": "hamlet", "name": "रोहिणी गाउँ", "population": null}}, {"type": "Feature", "geometry": {"type": "Point", "coordinates": [85.5313906, 27.7003164]}, "properties": {"place": "hamlet", "name": "साथी कुरिया गाउँ", "population": null}}, {"type": "Feature", "geometry": {"type": "Point", "coordinates": [83.7711528, 28.0379396]}, "properties": {"place": "village", "name": "Bagere Bazar", "population": null}}, {"type": "Feature", "geometry": {"type": "Point", "coordinates": [83.742684, 28.053762]}, "properties": {"place": "village", "name": "Dhapuk", "population": null}}, {"type": "Feature", "geometry": {"type": "Point", "coordinates": [83.7532525, 28.0555558]}, "properties": {"place": "hamlet", "name": "Khorbar", "population": null}}, {"type": "Feature", "geometry": {"type": "Point", "coordinates": [83.7503299, 28.0470586]}, "properties": {"place": "hamlet", "name": "Phedi", "population": null}}, {"type": "Feature", "geometry": {"type": "Point", "coordinates": [83.7155858, 28.0816014]}, "properties": {"place": "hamlet", "name": "Sirukharka", "population": null}}, {"type": "Feature", "geometry": {"type": "Point", "coordinates": [83.72325, 28.0687637]}, "properties": {"place": "hamlet", "name": "Jogithum Chhapa", "population": "320"}}, {"type": "Feature", "geometry": {"type": "Point", "coordinates": [83.7294156, 28.0643717]}, "properties": {"place": "hamlet", "name": "Sanavanjyang", "population": null}}, {"type": "Feature", "geometry": {"type": "Point", "coordinates": [83.7259125, 28.0564023]}, "properties": {"place": "hamlet", "name": "Diguwa", "population": null}}, {"type": "Feature", "geometry": {"type": "Point", "coordinates": [83.7501111, 28.0394079]}, "properties": {"place": "hamlet", "name": "Mondanda", "population": null}}, {"type": "Feature", "geometry": {"type": "Point", "coordinates": [83.7296338, 28.0335266]}, "properties": {"place": "hamlet", "name": "Okadi", "population": null}}, {"type": "Feature", "geometry": {"type": "Point", "coordinates": [83.7406859, 28.0295884]}, "properties": {"place": "hamlet", "name": "Ripa", "population": null}}, {"type": "Feature", "geometry": {"type": "Point", "coordinates": [83.7560964, 28.0398846]}, "properties": {"place": "hamlet", "name": "Taruk", "population": "120"}}, {"type": "Feature", "geometry": {"type": "Point", "coordinates": [83.72299, 28.049725]}, "properties": {"place": "hamlet", "name": "Thuli Bhanjyang", "population": null}}, {"type": "Feature", "geometry": {"type": "Point", "coordinates": [83.7389763, 28.045789]}, "properties": {"place": "village", "name": "Chilaunikharka", "population": null}}, {"type": "Feature", "geometry": {"type": "Point", "coordinates": [83.7435181, 28.0442824]}, "properties": {"place": "hamlet", "name": "Dumsakhola", "population": null}}, {"type": "Feature", "geometry": {"type": "Point", "coordinates": [83.7355632, 28.0508949]}, "properties": {"place": "hamlet", "name": "Salikosh", "population": null}}, {"type": "Feature", "geometry": {"type": "Point", "coordinates": [83.7394803, 28.0407032]}, "properties": {"place": "hamlet", "name": "Pakhere", "population": null}}, {"type": "Feature", "geometry": {"type": "Point", "coordinates": [84.7641169, 27.8131268]}, "properties": {"place": "hamlet", "name": "विशालटार", "population": null}}, {"type": "Feature", "geometry": {"type": "Point", "coordinates": [84.8083472, 27.8163594]}, "properties": {"place": "hamlet", "name": "सलाङघाट", "population": null}}, {"type": "Feature", "geometry": {"type": "Point", "coordinates": [85.3970476, 28.1625011]}, "properties": {"place": "hamlet", "name": "शेर्पागाउँ", "population": null}}, {"type": "Feature", "geometry": {"type": "Point", "coordinates": [88.1274092, 26.6537048]}, "properties": {"place": "town", "name": "मेचीनगर", "population": null}}, {"type": "Feature", "geometry": {"type": "Point", "coordinates": [84.543739, 28.06925]}, "properties": {"place": "village", "name": "Amppipal", "population": null}}, {"type": "Feature", "geometry": {"type": "Point", "coordinates": [84.4196458, 27.4341522]}, "properties": {"place": "hamlet", "name": "टम्टा बजार", "population": null}}, {"type": "Feature", "geometry": {"type": "Point", "coordinates": [85.2469602, 27.8156544]}, "properties": {"place": "hamlet", "name": "ककनी", "population": null}}, {"type": "Feature", "geometry": {"type": "Point", "coordinates": [86.7737491, 27.9399244]}, "properties": {"place": "hamlet", "name": "Dzonglha", "population": null}}, {"type": "Feature", "geometry": {"type": "Point", "coordinates": [83.9484682, 28.361975]}, "properties": {"place": "hamlet", "name": "Hamro Rumja Gaun", "population": null}}, {"type": "Feature", "geometry": {"type": "Point", "coordinates": [83.8570436, 28.4031625]}, "properties": {"place": "hamlet", "name": "Low Camp", "population": null}}, {"type": "Feature", "geometry": {"type": "Point", "coordinates": [84.4775581, 28.0559385]}, "properties": {"place": "hamlet", "name": "Chepe Ghat", "population": null}}, {"type": "Feature", "geometry": {"type": "Point", "coordinates": [86.6097621, 27.9452203]}, "properties": {"place": "hamlet", "name": "Chhule", "population": null}}, {"type": "Feature", "geometry": {"type": "Point", "coordinates": [83.9721505, 28.676864]}, "properties": {"place": "hamlet", "name": "Upper Khangsar", "population": null}}, {"type": "Feature", "geometry": {"type": "Point", "coordinates": [83.9734305, 28.6739016]}, "properties": {"place": "hamlet", "name": "Middle Khangsar", "population": null}}, {"type": "Feature", "geometry": {"type": "Point", "coordinates": [83.7844721, 28.8501595]}, "properties": {"place": "village", "name": "Tiri", "population": null}}, {"type": "Feature", "geometry": {"type": "Point", "coordinates": [84.3937368, 28.3023618]}, "properties": {"place": "hamlet", "name": "Ngadi Lamjung", "population": null}}, {"type": "Feature", "geometry": {"type": "Point", "coordinates": [84.431168, 28.176794]}, "properties": {"place": "hamlet", "name": "Udipur", "population": null}}, {"type": "Feature", "geometry": {"type": "Point", "coordinates": [84.3837538, 28.2177279]}, "properties": {"place": "hamlet", "name": "Ranikuwa", "population": null}}, {"type": "Feature", "geometry": {"type": "Point", "coordinates": [84.4330509, 28.1359981]}, "properties": {"place": "village", "name": "siudibar", "population": null}}, {"type": "Feature", "geometry": {"type": "Point", "coordinates": [84.4050084, 28.3729718]}, "properties": {"place": "hamlet", "name": null, "population": null}}, {"type": "Feature", "geometry": {"type": "Point", "coordinates": [83.8711281, 28.8249728]}, "properties": {"place": "hamlet", "name": "Chongur", "population": null}}, {"type": "Feature", "geometry": {"type": "Point", "coordinates": [83.8159117, 28.4001822]}, "properties": {"place": "hamlet", "name": "Uri", "population": null}}, {"type": "Feature", "geometry": {"type": "Point", "coordinates": [83.7975934, 28.3957979]}, "properties": {"place": "hamlet", "name": "Komrong", "population": null}}, {"type": "Feature", "geometry": {"type": "Point", "coordinates": [83.7877873, 28.3999034]}, "properties": {"place": "hamlet", "name": "Melache", "population": null}}, {"type": "Feature", "geometry": {"type": "Point", "coordinates": [83.8832102, 28.3633032]}, "properties": {"place": "village", "name": "Saiti Ghatta", "population": null}}, {"type": "Feature", "geometry": {"type": "Point", "coordinates": [83.8840489, 28.3579545]}, "properties": {"place": "hamlet", "name": "Kuibang", "population": null}}, {"type": "Feature", "geometry": {"type": "Point", "coordinates": [83.8725246, 28.3847962]}, "properties": {"place": "hamlet", "name": "Bhimjung", "population": null}}, {"type": "Feature", "geometry": {"type": "Point", "coordinates": [83.8747242, 28.3848071]}, "properties": {"place": "hamlet", "name": "Sidhing", "population": null}}, {"type": "Feature", "geometry": {"type": "Point", "coordinates": [83.8677601, 28.4334871]}, "properties": {"place": "hamlet", "name": "High Camp", "population": null}}, {"type": "Feature", "geometry": {"type": "Point", "coordinates": [83.8922007, 28.3226114]}, "properties": {"place": "hamlet", "name": "Khora Mukh", "population": null}}, {"type": "Feature", "geometry": {"type": "Point", "coordinates": [85.3506294, 27.7603552]}, "properties": {"place": "town", "name": "बूढानीलकण्ठ", "population": null}}, {"type": "Feature", "geometry": {"type": "Point", "coordinates": [85.3475649, 27.7482297]}, "properties": {"place": "hamlet", "name": "गोल्फुटार", "population": null}}, {"type": "Feature", "geometry": {"type": "Point", "coordinates": [84.8936869, 28.4435327]}, "properties": {"place": "village", "name": "Nyak", "population": null}}, {"type": "Feature", "geometry": {"type": "Point", "coordinates": [84.7382652, 28.561306]}, "properties": {"place": "village", "name": "Lhi", "population": null}}, {"type": "Feature", "geometry": {"type": "Point", "coordinates": [84.6288315, 28.0436781]}, "properties": {"place": "village", "name": "Naya Sagu", "population": null}}, {"type": "Feature", "geometry": {"type": "Point", "coordinates": [84.7019922, 28.574047]}, "properties": {"place": "village", "name": "Lho", "population": null}}, {"type": "Feature", "geometry": {"type": "Point", "coordinates": [85.6645992, 26.8855252]}, "properties": {"place": "hamlet", "name": "जीङदवा", "population": null}}, {"type": "Feature", "geometry": {"type": "Point", "coordinates": [85.552917, 27.618921]}, "properties": {"place": "city", "name": "धुलिखेल", "population": null}}, {"type": "Feature", "geometry": {"type": "Point", "coordinates": [84.6341365, 28.6508662]}, "properties": {"place": "village", "name": "Samdo", "population": null}}, {"type": "Feature", "geometry": {"type": "Point", "coordinates": [85.2094347, 27.8291945]}, "properties": {"place": "hamlet", "name": "जुरेथूम", "population": null}}, {"type": "Feature", "geometry": {"type": "Point", "coordinates": [85.194453, 27.8664405]}, "properties": {"place": "hamlet", "name": "दाङमाई", "population": null}}, {"type": "Feature", "geometry": {"type": "Point", "coordinates": [85.1932646, 27.8452758]}, "properties": {"place": "hamlet", "name": "लौके बाराहितान", "population": null}}, {"type": "Feature", "geometry": {"type": "Point", "coordinates": [85.180529, 27.8625873]}, "properties": {"place": "hamlet", "name": "काजिन डाँडा", "population": null}}, {"type": "Feature", "geometry": {"type": "Point", "coordinates": [84.2687118, 28.177171]}, "properties": {"place": "hamlet", "name": "Shyauli Bazaar", "population": null}}, {"type": "Feature", "geometry": {"type": "Point", "coordinates": [84.2214297, 28.1595445]}, "properties": {"place": "village", "name": "Kharputar", "population": null}}, {"type": "Feature", "geometry": {"type": "Point", "coordinates": [85.191843, 27.84917]}, "properties": {"place": "hamlet", "name": "लौके कोटघाडेरी", "population": null}}, {"type": "Feature", "geometry": {"type": "Point", "coordinates": [85.1905153, 27.8419128]}, "properties": {"place": "hamlet", "name": "लौके", "population": null}}, {"type": "Feature", "geometry": {"type": "Point", "coordinates": [85.1783169, 27.8516359]}, "properties": {"place": "hamlet", "name": "पल्लो दाङमाई", "population": null}}, {"type": "Feature", "geometry": {"type": "Point", "coordinates": [86.7448874, 27.5863713]}, "properties": {"place": "village", "name": "पांगौन", "population": "100"}}, {"type": "Feature", "geometry": {"type": "Point", "coordinates": [86.7998419, 27.5692878]}, "properties": {"place": "hamlet", "name": "नाजिङ्दिङ्मा", "population": "10"}}, {"type": "Feature", "geometry": {"type": "Point", "coordinates": [86.7893755, 27.573964]}, "properties": {"place": "hamlet", "name": null, "population": null}}, {"type": "Feature", "geometry": {"type": "Point", "coordinates": [86.7736796, 27.5832954]}, "properties": {"place": "hamlet", "name": "Sibuje / Chatuk", "population": "100"}}, {"type": "Feature", "geometry": {"type": "Point", "coordinates": [83.805199, 28.889593]}, "properties": {"place": "village", "name": "Tangbe", "population": null}}, {"type": "Feature", "geometry": {"type": "Point", "coordinates": [86.8151153, 27.5403097]}, "properties": {"place": "hamlet", "name": "Kiraule", "population": "100"}}, {"type": "Feature", "geometry": {"type": "Point", "coordinates": [83.7080823, 28.7752908]}, "properties": {"place": "village", "name": "Syāng", "population": null}}, {"type": "Feature", "geometry": {"type": "Point", "coordinates": [86.850624, 27.501961]}, "properties": {"place": "village", "name": "Gudel", "population": "400"}}, {"type": "Feature", "geometry": {"type": "Point", "coordinates": [86.8956878, 27.4583288]}, "properties": {"place": "village", "name": "Sanam", "population": "40"}}, {"type": "Feature", "geometry": {"type": "Point", "coordinates": [86.978989, 27.406828]}, "properties": {"place": "village", "name": "Phedi", "population": "200"}}, {"type": "Feature", "geometry": {"type": "Point", "coordinates": [87.0263253, 27.3862344]}, "properties": {"place": "village", "name": "Doban", "population": "50"}}, {"type": "Feature", "geometry": {"type": "Point", "coordinates": [87.0649215, 27.4028043]}, "properties": {"place": "village", "name": "Gothe Bazar", "population": "50"}}, {"type": "Feature", "geometry": {"type": "Point", "coordinates": [87.007349, 27.3997174]}, "properties": {"place": "village", "name": "Sarmatar", "population": "80"}}, {"type": "Feature", "geometry": {"type": "Point", "coordinates": [86.9867732, 27.3980911]}, "properties": {"place": "village", "name": "तेन्दो", "population": "100"}}, {"type": "Feature", "geometry": {"type": "Point", "coordinates": [87.1595131, 27.3815655]}, "properties": {"place": "hamlet", "name": "Chewabesi", "population": null}}, {"type": "Feature", "geometry": {"type": "Point", "coordinates": [87.1410877, 27.392688]}, "properties": {"place": "hamlet", "name": "Kattike Gath", "population": "200"}}, {"type": "Feature", "geometry": {"type": "Point", "coordinates": [87.1171782, 27.4093209]}, "properties": {"place": "hamlet", "name": "Majhuwagadhi", "population": "300"}}, {"type": "Feature", "geometry": {"type": "Point", "coordinates": [87.196861, 27.317297]}, "properties": {"place": "village", "name": "Tumlingtar", "population": null}}, {"type": "Feature", "geometry": {"type": "Point", "coordinates": [86.936255, 27.4325174]}, "properties": {"place": "hamlet", "name": "Gurase", "population": "10"}}, {"type": "Feature", "geometry": {"type": "Point", "coordinates": [86.9710999, 27.4087608]}, "properties": {"place": "village", "name": "Jaubari", "population": "100"}}, {"type": "Feature", "geometry": {"type": "Point", "coordinates": [86.8318947, 27.5125994]}, "properties": {"place": "village", "name": "Bung", "population": "500"}}, {"type": "Feature", "geometry": {"type": "Point", "coordinates": [86.813198, 27.5646034]}, "properties": {"place": "hamlet", "name": null, "population": "10"}}, {"type": "Feature", "geometry": {"type": "Point", "coordinates": [86.8475131, 27.4935979]}, "properties": {"place": "village", "name": "Tatsalung", "population": "300"}}, {"type": "Feature", "geometry": {"type": "Point", "coordinates": [86.68618, 27.597586]}, "properties": {"place": "village", "name": "Jubing", "population": "2300"}}, {"type": "Feature", "geometry": {"type": "Point", "coordinates": [86.7045226, 27.6034532]}, "properties": {"place": "village", "name": "खरीखोला", "population": "500"}}, {"type": "Feature", "geometry": {"type": "Point", "coordinates": [86.6461915, 27.5882157]}, "properties": {"place": "village", "name": "Nunthala", "population": "200"}}, {"type": "Feature", "geometry": {"type": "Point", "coordinates": [86.6079543, 27.5900676]}, "properties": {"place": "village", "name": "Ringmu", "population": "200"}}, {"type": "Feature", "geometry": {"type": "Point", "coordinates": [86.6219847, 27.5932388]}, "properties": {"place": "hamlet", "name": "Taksindu", "population": "100"}}, {"type": "Feature", "geometry": {"type": "Point", "coordinates": [86.5468645, 27.5821955]}, "properties": {"place": "village", "name": "Junbesi", "population": "500"}}, {"type": "Feature", "geometry": {"type": "Point", "coordinates": [86.5766587, 27.5636789]}, "properties": {"place": "hamlet", "name": "Phurtheng", "population": null}}, {"type": "Feature", "geometry": {"type": "Point", "coordinates": [86.5288258, 27.5725252]}, "properties": {"place": "village", "name": "Tragdobuk", "population": "50"}}, {"type": "Feature", "geometry": {"type": "Point", "coordinates": [86.3551756, 27.5757292]}, "properties": {"place": "hamlet", "name": "तल्लो भण्डार", "population": "200"}}, {"type": "Feature", "geometry": {"type": "Point", "coordinates": [86.3306516, 27.5825265]}, "properties": {"place": "hamlet", "name": "देउराली", "population": "70"}}, {"type": "Feature", "geometry": {"type": "Point", "coordinates": [82.5086929, 28.1096136]}, "properties": {"place": "village", "name": "दुई खोली बजार", "population": null}}, {"type": "Feature", "geometry": {"type": "Point", "coordinates": [82.6694301, 28.2721249]}, "properties": {"place": "village", "name": "Satdobate", "population": null}}, {"type": "Feature", "geometry": {"type": "Point", "coordinates": [82.6843324, 28.2685909]}, "properties": {"place": "village", "name": "Chiyapani", "population": null}}, {"type": "Feature", "geometry": {"type": "Point", "coordinates": [82.6370932, 28.3034253]}, "properties": {"place": "town", "name": "लिवाङ्", "population": null}}, {"type": "Feature", "geometry": {"type": "Point", "coordinates": [82.6762322, 28.2728713]}, "properties": {"place": "village", "name": "Lakuri Dada", "population": null}}, {"type": "Feature", "geometry": {"type": "Point", "coordinates": [82.7115274, 28.1482152]}, "properties": {"place": "town", "name": "भिङ्री बजार", "population": null}}, {"type": "Feature", "geometry": {"type": "Point", "coordinates": [82.7875625, 28.0509773]}, "properties": {"place": "hamlet", "name": "चकचके", "population": null}}, {"type": "Feature", "geometry": {"type": "Point", "coordinates": [85.5327509, 27.6149239]}, "properties": {"place": "hamlet", "name": "श्रीखंडपुर", "population": null}}, {"type": "Feature", "geometry": {"type": "Point", "coordinates": [85.5266928, 27.5804769]}, "properties": {"place": "hamlet", "name": "भण्डारी गाउँ", "population": null}}, {"type": "Feature", "geometry": {"type": "Point", "coordinates": [84.1584404, 28.1948412]}, "properties": {"place": "village", "name": "Lipeany", "population": null}}, {"type": "Feature", "geometry": {"type": "Point", "coordinates": [84.0417181, 28.2187166]}, "properties": {"place": "hamlet", "name": "Arba", "population": null}}, {"type": "Feature", "geometry": {"type": "Point", "coordinates": [84.0770032, 28.2243093]}, "properties": {"place": "hamlet", "name": "Chitepani", "population": null}}, {"type": "Feature", "geometry": {"type": "Point", "coordinates": [84.0825983, 28.2215391]}, "properties": {"place": "hamlet", "name": "Deumani", "population": null}}, {"type": "Feature", "geometry": {"type": "Point", "coordinates": [84.1162232, 28.205542]}, "properties": {"place": "hamlet", "name": "Kiwarigaun", "population": null}}, {"type": "Feature", "geometry": {"type": "Point", "coordinates": [84.1451722, 28.2024246]}, "properties": {"place": "hamlet", "name": "Ramche", "population": null}}, {"type": "Feature", "geometry": {"type": "Point", "coordinates": [84.104408, 28.2114031]}, "properties": {"place": "hamlet", "name": "SaureBhanjyang", "population": null}}, {"type": "Feature", "geometry": {"type": "Point", "coordinates": [84.0849238, 28.2126146]}, "properties": {"place": "hamlet", "name": "ठुलोकोट", "population": null}}, {"type": "Feature", "geometry": {"type": "Point", "coordinates": [84.4254257, 27.7391877]}, "properties": {"place": "hamlet", "name": "देवघाट", "population": null}}, {"type": "Feature", "geometry": {"type": "Point", "coordinates": [82.9807427, 28.880117]}, "properties": {"place": "village", "name": "Tarakot", "population": null}}, {"type": "Feature", "geometry": {"type": "Point", "coordinates": [83.1149402, 29.3726307]}, "properties": {"place": "hamlet", "name": "Chagaon", "population": null}}, {"type": "Feature", "geometry": {"type": "Point", "coordinates": [83.8030693, 28.3449089]}, "properties": {"place": "hamlet", "name": "Kly Danda", "population": null}}, {"type": "Feature", "geometry": {"type": "Point", "coordinates": [83.7973699, 28.3326348]}, "properties": {"place": "hamlet", "name": "Syauli Bazaar", "population": null}}, {"type": "Feature", "geometry": {"type": "Point", "coordinates": [84.0582852, 28.2102521]}, "properties": {"place": "hamlet", "name": "नरेशपुर", "population": null}}, {"type": "Feature", "geometry": {"type": "Point", "coordinates": [85.4327027, 27.7776708]}, "properties": {"place": "hamlet", "name": "मूलखर्क", "population": null}}, {"type": "Feature", "geometry": {"type": "Point", "coordinates": [85.490121, 27.7749449]}, "properties": {"place": "hamlet", "name": "झुले", "population": null}}, {"type": "Feature", "geometry": {"type": "Point", "coordinates": [85.4261675, 27.6711133]}, "properties": {"place": "city", "name": "भक्तपुर", "population": null}}, {"type": "Feature", "geometry": {"type": "Point", "coordinates": [85.5301693, 27.6138042]}, "properties": {"place": "hamlet", "name": "खड्पु", "population": null}}, {"type": "Feature", "geometry": {"type": "Point", "coordinates": [85.4923181, 27.6341547]}, "properties": {"place": "hamlet", "name": "भैसेँपाटी", "population": null}}, {"type": "Feature", "geometry": {"type": "Point", "coordinates": [83.9057132, 27.4301135]}, "properties": {"place": "village", "name": "Valmikinagar", "population": null}}, {"type": "Feature", "geometry": {"type": "Point", "coordinates": [80.0679325, 28.8303836]}, "properties": {"place": "village", "name": null, "population": null}}, {"type": "Feature", "geometry": {"type": "Point", "coordinates": [85.2771276, 27.6690304]}, "properties": {"place": "hamlet", "name": "जरुहिती", "population": null}}, {"type": "Feature", "geometry": {"type": "Point", "coordinates": [84.7400911, 27.9545964]}, "properties": {"place": "village", "name": "Kyamuntar", "population": null}}, {"type": "Feature", "geometry": {"type": "Point", "coordinates": [86.2128522, 27.8422459]}, "properties": {"place": "hamlet", "name": null, "population": null}}, {"type": "Feature", "geometry": {"type": "Point", "coordinates": [83.7637891, 28.8199861]}, "properties": {"place": "village", "name": "Pangling", "population": null}}, {"type": "Feature", "geometry": {"type": "Point", "coordinates": [83.7398215, 28.8230544]}, "properties": {"place": "village", "name": "Dhagarjun", "population": null}}, {"type": "Feature", "geometry": {"type": "Point", "coordinates": [83.7470426, 28.8257629]}, "properties": {"place": "village", "name": "Phalyak", "population": null}}, {"type": "Feature", "geometry": {"type": "Point", "coordinates": [83.7915844, 28.8022228]}, "properties": {"place": "village", "name": "Lupra", "population": null}}, {"type": "Feature", "geometry": {"type": "Point", "coordinates": [85.0451271, 27.754945]}, "properties": {"place": "hamlet", "name": "सिम्ले बजार", "population": null}}, {"type": "Feature", "geometry": {"type": "Point", "coordinates": [82.5253412, 27.6950654]}, "properties": {"place": "village", "name": "कोइलाबास", "population": null}}, {"type": "Feature", "geometry": {"type": "Point", "coordinates": [87.5512364, 26.4078645]}, "properties": {"place": "town", "name": "सिक्टी", "population": "1000"}}, {"type": "Feature", "geometry": {"type": "Point", "coordinates": [84.5488792, 27.6168136]}, "properties": {"place": "hamlet", "name": "ज्यामिरे", "population": null}}, {"type": "Feature", "geometry": {"type": "Point", "coordinates": [84.5335797, 27.6159213]}, "properties": {"place": "hamlet", "name": "बेल्सी", "population": null}}, {"type": "Feature", "geometry": {"type": "Point", "coordinates": [84.8055604, 27.5407519]}, "properties": {"place": "village", "name": "मनहरी", "population": "10000"}}, {"type": "Feature", "geometry": {"type": "Point", "coordinates": [81.6193987, 30.060704]}, "properties": {"place": "village", "name": "Syakarpu", "population": null}}, {"type": "Feature", "geometry": {"type": "Point", "coordinates": [81.7572545, 30.0071084]}, "properties": {"place": "hamlet", "name": "Jar Kholsi", "population": null}}, {"type": "Feature", "geometry": {"type": "Point", "coordinates": [81.7665924, 30.0053719]}, "properties": {"place": "village", "name": "Dharapuri", "population": null}}, {"type": "Feature", "geometry": {"type": "Point", "coordinates": [81.3333533, 30.1517658]}, "properties": {"place": "town", "name": "हिल्सा", "population": null}}, {"type": "Feature", "geometry": {"type": "Point", "coordinates": [81.744559, 30.0410996]}, "properties": {"place": "village", "name": "Chyaduk", "population": null}}, {"type": "Feature", "geometry": {"type": "Point", "coordinates": [81.6248766, 30.0578184]}, "properties": {"place": "village", "name": "Yalbang", "population": null}}, {"type": "Feature", "geometry": {"type": "Point", "coordinates": [85.00219, 27.032719]}, "properties": {"place": "town", "name": "कलैया", "population": "42826"}}, {"type": "Feature", "geometry": {"type": "Point", "coordinates": [84.9765794, 27.1604122]}, "properties": {"place": "city", "name": "जीतपुरसिमरा", "population": null}}, {"type": "Feature", "geometry": {"type": "Point", "coordinates": [81.6149535, 28.5967919]}, "properties": {"place": "hamlet", "name": "Birendra Chok", "population": null}}, {"type": "Feature", "geometry": {"type": "Point", "coordinates": [81.6138003, 28.6008469]}, "properties": {"place": "hamlet", "name": "Ganesh Chok", "population": null}}, {"type": "Feature", "geometry": {"type": "Point", "coordinates": [81.6468515, 28.5785988]}, "properties": {"place": "hamlet", "name": "Gagretal", "population": null}}, {"type": "Feature", "geometry": {"type": "Point", "coordinates": [81.608124, 28.574497]}, "properties": {"place": "village", "name": "Latikoili", "population": null}}, {"type": "Feature", "geometry": {"type": "Point", "coordinates": [81.653649, 28.6051294]}, "properties": {"place": "village", "name": "Karekhola", "population": null}}, {"type": "Feature", "geometry": {"type": "Point", "coordinates": [81.6748063, 28.6024167]}, "properties": {"place": "village", "name": "Jhupra", "population": null}}, {"type": "Feature", "geometry": {"type": "Point", "coordinates": [81.5790772, 28.608746]}, "properties": {"place": "town", "name": "Bangesimal", "population": null}}, {"type": "Feature", "geometry": {"type": "Point", "coordinates": [81.633908, 28.5517368]}, "properties": {"place": "village", "name": "Manikapur", "population": null}}, {"type": "Feature", "geometry": {"type": "Point", "coordinates": [85.4600941, 27.572724]}, "properties": {"place": "hamlet", "name": "छिन्याभञ्ज्याङ", "population": null}}, {"type": "Feature", "geometry": {"type": "Point", "coordinates": [85.4705265, 27.5869609]}, "properties": {"place": "village", "name": "चुनडुङ्गा", "population": null}}, {"type": "Feature", "geometry": {"type": "Point", "coordinates": [81.6258415, 28.5865952]}, "properties": {"place": "hamlet", "name": "Khajura", "population": null}}, {"type": "Feature", "geometry": {"type": "Point", "coordinates": [81.6368278, 28.5997262]}, "properties": {"place": "hamlet", "name": "Chanaute", "population": null}}, {"type": "Feature", "geometry": {"type": "Point", "coordinates": [81.6054819, 28.6018258]}, "properties": {"place": "hamlet", "name": "Bhairavsthan", "population": null}}, {"type": "Feature", "geometry": {"type": "Point", "coordinates": [85.3575334, 27.6115065]}, "properties": {"place": "hamlet", "name": "टौखेल", "population": null}}, {"type": "Feature", "geometry": {"type": "Point", "coordinates": [81.6115084, 28.6034471]}, "properties": {"place": "hamlet", "name": "Chisapani", "population": null}}, {"type": "Feature", "geometry": {"type": "Point", "coordinates": [81.6552284, 28.5577723]}, "properties": {"place": "hamlet", "name": "Subakuna", "population": null}}, {"type": "Feature", "geometry": {"type": "Point", "coordinates": [83.2995307, 27.4801719]}, "properties": {"place": "village", "name": "Madhubani", "population": null}}, {"type": "Feature", "geometry": {"type": "Point", "coordinates": [83.3066381, 27.4893795]}, "properties": {"place": "village", "name": "Mahagidiya", "population": null}}, {"type": "Feature", "geometry": {"type": "Point", "coordinates": [83.2937301, 27.4749906]}, "properties": {"place": "village", "name": "Oshojetban", "population": null}}, {"type": "Feature", "geometry": {"type": "Point", "coordinates": [83.3069924, 27.4527677]}, "properties": {"place": "village", "name": null, "population": null}}, {"type": "Feature", "geometry": {"type": "Point", "coordinates": [83.2998514, 27.4577431]}, "properties": {"place": "village", "name": null, "population": null}}, {"type": "Feature", "geometry": {"type": "Point", "coordinates": [83.2932715, 27.4635029]}, "properties": {"place": "village", "name": null, "population": null}}, {"type": "Feature", "geometry": {"type": "Point", "coordinates": [83.3161866, 27.4635831]}, "properties": {"place": "village", "name": null, "population": null}}, {"type": "Feature", "geometry": {"type": "Point", "coordinates": [83.3166944, 27.4677806]}, "properties": {"place": "village", "name": null, "population": null}}, {"type": "Feature", "geometry": {"type": "Point", "coordinates": [83.318837, 27.4722542]}, "properties": {"place": "hamlet", "name": null, "population": null}}, {"type": "Feature", "geometry": {"type": "Point", "coordinates": [83.3111374, 27.478644]}, "properties": {"place": "village", "name": null, "population": null}}, {"type": "Feature", "geometry": {"type": "Point", "coordinates": [83.46631, 27.4800678]}, "properties": {"place": "village", "name": "Belahiya", "population": null}}, {"type": "Feature", "geometry": {"type": "Point", "coordinates": [83.4662018, 27.4719014]}, "properties": {"place": "town", "name": "Sonauli", "population": null}}, {"type": "Feature", "geometry": {"type": "Point", "coordinates": [83.2860393, 27.4915793]}, "properties": {"place": "village", "name": "पर्सा", "population": null}}, {"type": "Feature", "geometry": {"type": "Point", "coordinates": [83.0525748, 27.5436472]}, "properties": {"place": "town", "name": "Kapilavastu", "population": null}}, {"type": "Feature", "geometry": {"type": "Point", "coordinates": [85.4970709, 27.6904278]}, "properties": {"place": "hamlet", "name": "अधिकारी गाउँ", "population": null}}, {"type": "Feature", "geometry": {"type": "Point", "coordinates": [85.4646822, 27.6407369]}, "properties": {"place": "hamlet", "name": "बस्न्यात", "population": null}}, {"type": "Feature", "geometry": {"type": "Point", "coordinates": [85.4450275, 27.6631847]}, "properties": {"place": "hamlet", "name": "भाटेढिकुर", "population": null}}, {"type": "Feature", "geometry": {"type": "Point", "coordinates": [85.4492998, 27.6563242]}, "properties": {"place": "hamlet", "name": "चमथली", "population": null}}, {"type": "Feature", "geometry": {"type": "Point", "coordinates": [85.46777, 27.6879074]}, "properties": {"place": "hamlet", "name": "डाँडागाउँ", "population": null}}, {"type": "Feature", "geometry": {"type": "Point", "coordinates": [85.393593, 27.649227]}, "properties": {"place": "hamlet", "name": "दादिकोट", "population": null}}, {"type": "Feature", "geometry": {"type": "Point", "coordinates": [85.4614314, 27.6573055]}, "properties": {"place": "hamlet", "name": "देउजा", "population": null}}, {"type": "Feature", "geometry": {"type": "Point", "coordinates": [85.4827279, 27.6849537]}, "properties": {"place": "hamlet", "name": "घोरसाईने गाउँ", "population": null}}, {"type": "Feature", "geometry": {"type": "Point", "coordinates": [85.4147841, 27.6406999]}, "properties": {"place": "hamlet", "name": "गुन्डु", "population": null}}, {"type": "Feature", "geometry": {"type": "Point", "coordinates": [85.4754065, 27.6862562]}, "properties": {"place": "hamlet", "name": "जीतपुर", "population": null}}, {"type": "Feature", "geometry": {"type": "Point", "coordinates": [85.3961285, 27.6695843]}, "properties": {"place": "hamlet", "name": "जोशि", "population": null}}, {"type": "Feature", "geometry": {"type": "Point", "coordinates": [85.3934053, 27.6431364]}, "properties": {"place": "hamlet", "name": "कालिटार", "population": null}}, {"type": "Feature", "geometry": {"type": "Point", "coordinates": [85.4797541, 27.6821297]}, "properties": {"place": "hamlet", "name": "कार्की गाउँ", "population": null}}, {"type": "Feature", "geometry": {"type": "Point", "coordinates": [85.4602783, 27.6441451]}, "properties": {"place": "hamlet", "name": "महत गाउँ", "population": null}}, {"type": "Feature", "geometry": {"type": "Point", "coordinates": [85.4613366, 27.6530724]}, "properties": {"place": "hamlet", "name": "नलिन्चोक", "population": null}}, {"type": "Feature", "geometry": {"type": "Point", "coordinates": [85.447342, 27.647501]}, "properties": {"place": "hamlet", "name": "नङखेल", "population": null}}, {"type": "Feature", "geometry": {"type": "Point", "coordinates": [85.4906068, 27.6841766]}, "properties": {"place": "hamlet", "name": "दुलाल गाउँ", "population": null}}, {"type": "Feature", "geometry": {"type": "Point", "coordinates": [85.4638258, 27.645751]}, "properties": {"place": "hamlet", "name": "पलासे", "population": null}}, {"type": "Feature", "geometry": {"type": "Point", "coordinates": [85.466689, 27.6526803]}, "properties": {"place": "hamlet", "name": "पुवार", "population": null}}, {"type": "Feature", "geometry": {"type": "Point", "coordinates": [85.4542233, 27.6532202]}, "properties": {"place": "hamlet", "name": "शान्ती", "population": null}}, {"type": "Feature", "geometry": {"type": "Point", "coordinates": [85.374931, 27.655756]}, "properties": {"place": "hamlet", "name": "सिरुटार", "population": null}}, {"type": "Feature", "geometry": {"type": "Point", "coordinates": [85.3618228, 27.6635318]}, "properties": {"place": "hamlet", "name": "तल्लोगाउ", "population": null}}, {"type": "Feature", "geometry": {"type": "Point", "coordinates": [85.4034057, 27.6675536]}, "properties": {"place": "town", "name": "सूर्यविनायक", "population": null}}, {"type": "Feature", "geometry": {"type": "Point", "coordinates": [83.09597, 27.861368]}, "properties": {"place": "village", "name": "Thada", "population": null}}, {"type": "Feature", "geometry": {"type": "Point", "coordinates": [86.7145647, 27.614002]}, "properties": {"place": "village", "name": "Bupsa", "population": null}}, {"type": "Feature", "geometry": {"type": "Point", "coordinates": [86.46871, 27.57423]}, "properties": {"place": "hamlet", "name": "Goyam", "population": null}}, {"type": "Feature", "geometry": {"type": "Point", "coordinates": [86.71809, 27.62418]}, "properties": {"place": "hamlet", "name": "Kharte", "population": null}}, {"type": "Feature", "geometry": {"type": "Point", "coordinates": [86.73107, 27.64145]}, "properties": {"place": "village", "name": "पुइया", "population": null}}, {"type": "Feature", "geometry": {"type": "Point", "coordinates": [86.44048, 27.57735]}, "properties": {"place": "village", "name": "Sete", "population": null}}, {"type": "Feature", "geometry": {"type": "Point", "coordinates": [86.7195005, 27.6718789]}, "properties": {"place": "village", "name": "सुर्के", "population": null}}, {"type": "Feature", "geometry": {"type": "Point", "coordinates": [85.899582, 27.787806]}, "properties": {"place": "town", "name": "बाह्रविसे", "population": "3154"}}, {"type": "Feature", "geometry": {"type": "Point", "coordinates": [85.9568747, 27.9646238]}, "properties": {"place": "hamlet", "name": "कोदारी", "population": null}}, {"type": "Feature", "geometry": {"type": "Point", "coordinates": [84.308049, 27.9351092]}, "properties": {"place": "village", "name": null, "population": null}}, {"type": "Feature", "geometry": {"type": "Point", "coordinates": [84.3335679, 27.9248403]}, "properties": {"place": "hamlet", "name": null, "population": null}}, {"type": "Feature", "geometry": {"type": "Point", "coordinates": [84.3137464, 27.9436367]}, "properties": {"place": "hamlet", "name": null, "population": null}}, {"type": "Feature", "geometry": {"type": "Point", "coordinates": [84.3095193, 27.9519439]}, "properties": {"place": "hamlet", "name": null, "population": null}}, {"type": "Feature", "geometry": {"type": "Point", "coordinates": [84.3122819, 27.9492099]}, "properties": {"place": "hamlet", "name": null, "population": null}}, {"type": "Feature", "geometry": {"type": "Point", "coordinates": [83.8744696, 27.9576474]}, "properties": {"place": "hamlet", "name": null, "population": null}}, {"type": "Feature", "geometry": {"type": "Point", "coordinates": [83.8708849, 27.9558503]}, "properties": {"place": "village", "name": null, "population": null}}, {"type": "Feature", "geometry": {"type": "Point", "coordinates": [83.8929045, 27.9656881]}, "properties": {"place": "hamlet", "name": null, "population": null}}, {"type": "Feature", "geometry": {"type": "Point", "coordinates": [83.9121198, 27.972693]}, "properties": {"place": "hamlet", "name": null, "population": null}}, {"type": "Feature", "geometry": {"type": "Point", "coordinates": [83.9710534, 28.001689]}, "properties": {"place": "village", "name": null, "population": null}}, {"type": "Feature", "geometry": {"type": "Point", "coordinates": [83.9715255, 28.0001591]}, "properties": {"place": "village", "name": null, "population": null}}, {"type": "Feature", "geometry": {"type": "Point", "coordinates": [83.959999, 27.975418]}, "properties": {"place": "village", "name": "Chitrebhanjyang", "population": "4018"}}, {"type": "Feature", "geometry": {"type": "Point", "coordinates": [83.9759136, 27.983149]}, "properties": {"place": "hamlet", "name": null, "population": null}}, {"type": "Feature", "geometry": {"type": "Point", "coordinates": [83.9744544, 27.984802]}, "properties": {"place": "hamlet", "name": null, "population": null}}, {"type": "Feature", "geometry": {"type": "Point", "coordinates": [83.9633258, 28.0125985]}, "properties": {"place": "hamlet", "name": null, "population": null}}, {"type": "Feature", "geometry": {"type": "Point", "coordinates": [83.9645195, 28.0142253]}, "properties": {"place": "hamlet", "name": null, "population": null}}, {"type": "Feature", "geometry": {"type": "Point", "coordinates": [84.1251637, 27.6415327]}, "properties": {"place": "town", "name": "Kawasoti", "population": null}}, {"type": "Feature", "geometry": {"type": "Point", "coordinates": [84.5697684, 27.775385]}, "properties": {"place": "hamlet", "name": null, "population": null}}, {"type": "Feature", "geometry": {"type": "Point", "coordinates": [84.5277729, 27.8137475]}, "properties": {"place": "hamlet", "name": null, "population": null}}, {"type": "Feature", "geometry": {"type": "Point", "coordinates": [83.5415622, 27.8391386]}, "properties": {"place": "village", "name": "Bastari", "population": null}}, {"type": "Feature", "geometry": {"type": "Point", "coordinates": [83.556765, 27.834689]}, "properties": {"place": "hamlet", "name": "Pakluwa", "population": null}}, {"type": "Feature", "geometry": {"type": "Point", "coordinates": [83.5608966, 27.831532]}, "properties": {"place": "hamlet", "name": "Tinteaap", "population": null}}, {"type": "Feature", "geometry": {"type": "Point", "coordinates": [83.5679229, 27.8272316]}, "properties": {"place": "village", "name": "Ghari", "population": null}}, {"type": "Feature", "geometry": {"type": "Point", "coordinates": [83.5732981, 27.8229049]}, "properties": {"place": "village", "name": "Rani Chuddi", "population": null}}, {"type": "Feature", "geometry": {"type": "Point", "coordinates": [83.5761847, 27.8206936]}, "properties": {"place": "village", "name": "Amlehean", "population": null}}, {"type": "Feature", "geometry": {"type": "Point", "coordinates": [83.5840813, 27.8154363]}, "properties": {"place": "village", "name": "Kherauli", "population": null}}, {"type": "Feature", "geometry": {"type": "Point", "coordinates": [84.5719794, 27.5965292]}, "properties": {"place": "village", "name": null, "population": null}}, {"type": "Feature", "geometry": {"type": "Point", "coordinates": [84.6559781, 27.5773741]}, "properties": {"place": "hamlet", "name": null, "population": null}}, {"type": "Feature", "geometry": {"type": "Point", "coordinates": [84.6533254, 27.5764182]}, "properties": {"place": "hamlet", "name": null, "population": null}}, {"type": "Feature", "geometry": {"type": "Point", "coordinates": [84.6458743, 27.5824331]}, "properties": {"place": "hamlet", "name": null, "population": null}}, {"type": "Feature", "geometry": {"type": "Point", "coordinates": [84.6472451, 27.583327]}, "properties": {"place": "hamlet", "name": null, "population": null}}, {"type": "Feature", "geometry": {"type": "Point", "coordinates": [86.481247, 26.7143868]}, "properties": {"place": "town", "name": "लहान", "population": null}}, {"type": "Feature", "geometry": {"type": "Point", "coordinates": [85.3121091, 27.5745866]}, "properties": {"place": "hamlet", "name": "टीकाभैरव", "population": null}}, {"type": "Feature", "geometry": {"type": "Point", "coordinates": [83.8270953, 28.3929142]}, "properties": {"place": "hamlet", "name": "Himal Pani", "population": null}}, {"type": "Feature", "geometry": {"type": "Point", "coordinates": [83.7946944, 28.4056917]}, "properties": {"place": "hamlet", "name": "Kimorong Khola", "population": null}}, {"type": "Feature", "geometry": {"type": "Point", "coordinates": [86.4248813, 27.5823813]}, "properties": {"place": "hamlet", "name": "Chhimbu", "population": null}}, {"type": "Feature", "geometry": {"type": "Point", "coordinates": [86.4549999, 27.5781908]}, "properties": {"place": "village", "name": "Dakchu", "population": null}}, {"type": "Feature", "geometry": {"type": "Point", "coordinates": [85.4775488, 27.6919878]}, "properties": {"place": "hamlet", "name": "बगुवा", "population": null}}, {"type": "Feature", "geometry": {"type": "Point", "coordinates": [85.8538512, 26.6849625]},